{"version": 0.6, "generator": "Overpass API 0.7.62.5 1bd436f1", "osm3s": {"timestamp_osm_base": "2025-05-30T10:00:34Z", "copyright": "The data included in this document is from www.openstreetmap.org. The data is made available under ODbL."}, "elements": [{"type": "node", "id": 213578731, "lat": 50.0791355, "lon": 20.0650412, "tags": {"name": "Kombinat 01", "network": "Komunikacja Miejska w Krakowie", "network:wikidata": "Q1784404", "operator": "MPK Krak\u00f3w", "operator:wikidata": "Q11780297", "public_transport": "stop_position", "railway": "tram_stop", "ref": "107-1t", "tram": "yes"}}, {"type": "node", "id": 213585855, "lat": 50.0853912, "lon": 20.0385224, "tags": {"name": "Cienista 01", "network": "Komunikacja Miejska w Krakowie", "network:wikidata": "Q1784404", "operator": "MPK Krak\u00f3w", "operator:wikidata": "Q11780297", "public_transport": "stop_position", "railway": "tram_stop", "ref": "120-1t", "tram": "yes"}}, {"type": "node", "id": 213585864, "lat": 50.082406, "lon": 20.0329435, "tags": {"name": "Teatr Ludowy 01", "network": "Komunikacja Miejska w Krakowie", "network:wikidata": "Q1784404", "operator": "MPK Krak\u00f3w", "operator:wikidata": "Q11780297", "public_transport": "stop_position", "railway": "tram_stop", "ref": "119-1t", "tram": "yes"}}, {"type": "node", "id": 213585881, "lat": 50.0790506, "lon": 20.0264899, "tags": {"name": "Rondo Kocmyrzowskie im. Ks. Gorzelanego 02", "network": "Komunikacja Miejska w Krakowie", "network:wikidata": "Q1784404", "operator": "MPK Krak\u00f3w", "operator:wikidata": "Q11780297", "public_transport": "stop_position", "railway": "tram_stop", "ref": "118-2t", "tram": "yes"}}, {"type": "node", "id": 213585893, "lat": 50.0755265, "lon": 20.0201847, "tags": {"name": "Bie\u0144czycka 01", "network": "Komunikacja Miejska w Krakowie", "network:wikidata": "Q1784404", "operator": "MPK Krak\u00f3w", "operator:wikidata": "Q11780297", "public_transport": "stop_position", "railway": "tram_stop", "ref": "117-1t", "tram": "yes"}}, {"type": "node", "id": 213585922, "lat": 50.0742919, "lon": 20.0044684, "tags": {"name": "Stella-Sawickiego 02", "network": "Komunikacja Miejska w Krakowie", "network:wikidata": "Q1784404", "operator": "MPK Krak\u00f3w", "operator:wikidata": "Q11780297", "public_transport": "stop_position", "railway": "tram_stop", "ref": "101-2t", "tram": "yes"}}, {"type": "node", "id": 213585931, "lat": 50.0739983, "lon": 19.9987815, "tags": {"name": "AKF / PK 02", "network": "Komunikacja Miejska w Krakowie", "network:wikidata": "Q1784404", "operator": "MPK Krak\u00f3w", "operator:wikidata": "Q11780297", "public_transport": "stop_position", "railway": "tram_stop", "ref": "100-2t", "tram": "yes"}}, {"type": "node", "id": 213592007, "lat": 50.058832, "lon": 19.9623647, "tags": {"name": "Teatr Vari\u00e9t\u00e9 02", "network": "Komunikacja Miejska w Krakowie", "network:wikidata": "Q1784404", "operator": "MPK Krak\u00f3w", "operator:wikidata": "Q11780297", "public_transport": "stop_position", "railway": "tram_stop", "ref": "810-2t", "tram": "yes"}}, {"type": "node", "id": 213593804, "lat": 50.0595993, "lon": 19.976088, "tags": {"name": "Ofiar D\u0105bia 02", "network": "Komunikacja Miejska w Krakowie", "network:wikidata": "Q1784404", "operator": "MPK Krak\u00f3w", "operator:wikidata": "Q11780297", "public_transport": "stop_position", "railway": "tram_stop", "ref": "813-2t", "tram": "yes"}}, {"type": "node", "id": 213593828, "lat": 50.060181, "lon": 19.9673743, "tags": {"name": "Nullo 02", "network": "Komunikacja Miejska w Krakowie", "network:wikidata": "Q1784404", "operator": "MPK Krak\u00f3w", "operator:wikidata": "Q11780297", "public_transport": "stop_position", "railway": "tram_stop", "ref": "811-2t", "tram": "yes"}}, {"type": "node", "id": 213597071, "lat": 50.0673718, "lon": 20.0052055, "tags": {"name": "Rondo 308. Dywizjonu 02", "network": "Komunikacja Miejska w Krakowie", "network:wikidata": "Q1784404", "operator": "MPK Krak\u00f3w", "operator:wikidata": "Q11780297", "public_transport": "stop_position", "railway": "tram_stop", "ref": "115-2t", "tram": "yes"}}, {"type": "node", "id": 213602155, "lat": 50.0723553, "lon": 20.0285576, "tags": {"name": "Os. Kolorowe 02", "network": "Komunikacja Miejska w Krakowie", "network:wikidata": "Q1784404", "operator": "MPK Krak\u00f3w", "operator:wikidata": "Q11780297", "public_transport": "stop_position", "railway": "tram_stop", "ref": "104-2t", "tram": "yes"}}, {"type": "node", "id": 213605085, "lat": 50.0745301, "lon": 20.0462495, "tags": {"name": "Struga 01", "public_transport": "stop_position", "railway": "tram_stop", "tram": "yes", "url": "http://rozklady.mpk.krakow.pl/aktualne/p/p0106.htm"}}, {"type": "node", "id": 213643707, "lat": 50.0845326, "lon": 20.0205507, "tags": {"name": "DH Wanda 01", "network": "Komunikacja Miejska w Krakowie", "network:wikidata": "Q1784404", "operator": "MPK Krak\u00f3w", "operator:wikidata": "Q11780297", "public_transport": "stop_position", "railway": "tram_stop", "ref": "135-1t", "tram": "yes"}}, {"type": "node", "id": 213644494, "lat": 50.0802621, "lon": 20.0265424, "tags": {"name": "Rondo Kocmyrzowskie im. Ks. Gorzelanego 01", "network": "Komunikacja Miejska w Krakowie", "network:wikidata": "Q1784404", "operator": "MPK Krak\u00f3w", "operator:wikidata": "Q11780297", "public_transport": "stop_position", "railway": "tram_stop", "ref": "118-1t", "tram": "yes"}}, {"type": "node", "id": 213645106, "lat": 50.0900802, "lon": 20.0214207, "tags": {"name": "Rondo Hipokratesa 01", "network": "Komunikacja Miejska w Krakowie", "network:wikidata": "Q1784404", "operator": "MPK Krak\u00f3w", "operator:wikidata": "Q11780297", "public_transport": "stop_position", "railway": "tram_stop", "ref": "162-1t", "tram": "yes", "wikidata": "Q116458050"}}, {"type": "node", "id": 213645256, "lat": 50.0943601, "lon": 20.0111263, "tags": {"name": "Rondo Piastowskie 01", "network": "Komunikacja Miejska w Krakowie", "network:wikidata": "Q1784404", "operator": "MPK Krak\u00f3w", "operator:wikidata": "Q11780297", "public_transport": "stop_position", "railway": "tram_stop", "ref": "143-1t", "tram": "yes"}}, {"type": "node", "id": 213646585, "lat": 50.0978326, "lon": 20.013012, "tags": {"name": "Piasta Ko\u0142odzieja 01", "network": "Komunikacja Miejska w Krakowie", "network:wikidata": "Q1784404", "operator": "MPK Krak\u00f3w", "operator:wikidata": "Q11780297", "public_transport": "stop_position", "railway": "tram_stop", "ref": "147-1t", "tram": "yes"}}, {"type": "node", "id": 213646624, "lat": 50.1019885, "lon": 20.0120386, "tags": {"name": "Os. Piast\u00f3w 01", "network": "Komunikacja Miejska w Krakowie", "network:wikidata": "Q1784404", "operator": "MPK Krak\u00f3w", "operator:wikidata": "Q11780297", "public_transport": "stop_position", "railway": "tram_stop", "ref": "148-1t", "tram": "yes"}}, {"type": "node", "id": 213648409, "lat": 50.0937518, "lon": 20.0043218, "tags": {"name": "Os. Z\u0142otego Wieku 01", "network": "Komunikacja Miejska w Krakowie", "network:wikidata": "Q1784404", "operator": "MPK Krak\u00f3w", "operator:wikidata": "Q11780297", "public_transport": "stop_position", "railway": "tram_stop", "ref": "141-1t", "tram": "yes", "wikidata": "Q116457481"}}, {"type": "node", "id": 213648418, "lat": 50.0945024, "lon": 19.9999467, "tags": {"name": "Mi\u015bnie\u0144ska 01", "network": "Komunikacja Miejska w Krakowie", "network:wikidata": "Q1784404", "operator": "MPK Krak\u00f3w", "operator:wikidata": "Q11780297", "public_transport": "stop_position", "railway": "tram_stop", "ref": "140-1t", "tram": "yes"}}, {"type": "node", "id": 276679066, "lat": 50.0682455, "lon": 19.9477349, "tags": {"layer": "-2", "name": "Dworzec G\u0142\u00f3wny Tunel 02", "name:en": "Main Station Tunnel", "public_transport": "stop_position", "railway": "tram_stop", "tram": "yes"}}, {"type": "node", "id": 287442350, "lat": 50.0154155, "lon": 20.0225822, "tags": {"name": "Nowy Bie\u017can\u00f3w P+R", "network": "Komunikacja Miejska w Krakowie", "network:wikidata": "Q1784404", "operator": "MPK Krak\u00f3w", "operator:wikidata": "Q11780297", "public_transport": "stop_position", "railway": "tram_stop", "tram": "yes"}}, {"type": "node", "id": 287586332, "lat": 50.0156385, "lon": 20.0230451, "tags": {"name": "Nowy Bie\u017can\u00f3w P+R 01", "network": "Komunikacja Miejska w Krakowie", "network:wikidata": "Q1784404", "operator": "MPK Krak\u00f3w", "operator:wikidata": "Q11780297", "public_transport": "stop_position", "railway": "tram_stop", "ref": "702-1t", "tram": "yes", "url": "http://rozklady.mpk.krakow.pl/aktualne/p/p0702.htm"}}, {"type": "node", "id": 287586583, "lat": 50.0178301, "lon": 19.9908199, "tags": {"name": "Prokocim", "public_transport": "stop_position", "railway": "tram_stop", "tram": "yes", "url": "http://rozklady.mpk.krakow.pl/aktualne/p/p0648.htm", "wikidata": "Q116503103"}}, {"type": "node", "id": 288916414, "lat": 50.0418356, "lon": 19.9614158, "tags": {"name": "Podg\u00f3rze SKA 02", "network": "Komunikacja Miejska w Krakowie", "network:wikidata": "Q1784404", "operator": "MPK Krak\u00f3w", "operator:wikidata": "Q11780297", "public_transport": "stop_position", "railway": "tram_stop", "ref": "642-2t", "tram": "yes", "url": "http://rozklady.mpk.krakow.pl/aktualne/p/p0642.htm"}}, {"type": "node", "id": 289685340, "lat": 50.0136002, "lon": 19.9504325, "tags": {"name": "Kurdwan\u00f3w P+R 08", "network": "Komunikacja Miejska w Krakowie", "network:wikidata": "Q1784404", "operator": "MPK Krak\u00f3w", "operator:wikidata": "Q11780297", "public_transport": "stop_position", "railway": "tram_stop", "ref": "584-8t", "tram": "yes"}}, {"type": "node", "id": 289685344, "lat": 50.0123437, "lon": 19.9568375, "tags": {"name": "Witosa 01", "network": "Komunikacja Miejska w Krakowie", "network:wikidata": "Q1784404", "operator": "MPK Krak\u00f3w", "operator:wikidata": "Q11780297", "public_transport": "stop_position", "railway": "tram_stop", "ref": "583-1t", "tram": "yes", "url": "http://rozklady.mpk.krakow.pl/aktualne/p/p0583.htm"}}, {"type": "node", "id": 321429856, "lat": 50.0132364, "lon": 19.9266, "tags": {"name": "Borek Fa\u0142\u0119cki", "network": "Komunikacja Miejska w Krakowie", "network:wikidata": "Q1784404", "operator": "MPK Krak\u00f3w", "operator:wikidata": "Q11780297", "public_transport": "stop_position", "railway": "tram_stop", "tram": "yes", "url": "http://rozklady.mpk.krakow.pl/aktualne/p/p0562.htm"}}, {"type": "node", "id": 321429867, "lat": 50.0130891, "lon": 19.9270187, "tags": {"name": "Borek Fa\u0142\u0119cki 01", "network": "Komunikacja Miejska w Krakowie", "network:wikidata": "Q1784404", "operator": "MPK Krak\u00f3w", "operator:wikidata": "Q11780297", "public_transport": "stop_position", "railway": "tram_stop", "ref": "562-1t", "tram": "yes", "url": "http://rozklady.mpk.krakow.pl/aktualne/p/p0562.htm"}}, {"type": "node", "id": 321436933, "lat": 50.0719294, "lon": 20.104671, "tags": {"name": "Koksochemia 01", "network": "Komunikacja Miejska w Krakowie", "network:wikidata": "Q1784404", "operator": "MPK Krak\u00f3w", "operator:wikidata": "Q11780297", "public_transport": "stop_position", "railway": "tram_stop", "ref": "217-1t", "tram": "yes"}}, {"type": "node", "id": 321436944, "lat": 50.0691413, "lon": 20.091728, "tags": {"name": "Brama nr 5 01", "network": "Komunikacja Miejska w Krakowie", "network:wikidata": "Q1784404", "operator": "MPK Krak\u00f3w", "operator:wikidata": "Q11780297", "public_transport": "stop_position", "railway": "tram_stop", "ref": "215-1t", "tram": "yes"}}, {"type": "node", "id": 321437262, "lat": 50.0725634, "lon": 20.038829, "tags": {"name": "Plac Centralny im. R. Reagana 03", "network": "Komunikacja Miejska w Krakowie", "network:wikidata": "Q1784404", "operator": "MPK Krak\u00f3w", "operator:wikidata": "Q11780297", "public_transport": "stop_position", "railway": "tram_stop", "ref": "105-3t", "tram": "yes", "url": "http://rozklady.mpk.krakow.pl/aktualne/p/p0105.htm"}}, {"type": "node", "id": 321437391, "lat": 50.0717112, "lon": 20.0354966, "tags": {"name": "Plac Centralny im. R. Reagana 01", "network": "Komunikacja Miejska w Krakowie", "network:wikidata": "Q1784404", "operator": "MPK Krak\u00f3w", "operator:wikidata": "Q11780297", "public_transport": "stop_position", "railway": "tram_stop", "ref": "105-1t", "tram": "yes", "website": "https://rozklady.mpk.krakow.pl/aktualne/p/p0105.htm", "wheelchair": "yes"}}, {"type": "node", "id": 321458378, "lat": 50.0742389, "lon": 19.9574804, "tags": {"name": "Cmentarz Rakowicki 01", "network": "Komunikacja Miejska w Krakowie", "network:wikidata": "Q1784404", "operator": "MPK Krak\u00f3w", "operator:wikidata": "Q11780297", "public_transport": "stop_position", "railway": "tram_stop", "ref": "854-1t", "tram": "yes"}}, {"type": "node", "id": 470643346, "lat": 50.0638069, "lon": 19.9333778, "tags": {"name": "Teatr Bagatela 02", "network": "Komunikacja Miejska w Krakowie", "network:wikidata": "Q1784404", "operator": "MPK Krak\u00f3w", "operator:wikidata": "Q11780297", "public_transport": "stop_position", "railway": "tram_stop", "ref": "827-2t", "tram": "yes", "wheelchair": "yes"}}, {"type": "node", "id": 602156572, "lat": 50.0451313, "lon": 19.9548544, "tags": {"name": "Limanowskiego 01", "network": "Komunikacja Miejska w Krakowie", "network:wikidata": "Q1784404", "operator": "MPK Krak\u00f3w", "operator:wikidata": "Q11780297", "public_transport": "stop_position", "railway": "tram_stop", "ref": "641-1t", "tram": "yes", "url": "http://rozklady.mpk.krakow.pl/aktualne/p/p0641.htm", "wheelchair": "yes"}}, {"type": "node", "id": 602156574, "lat": 50.0449752, "lon": 19.9559492, "tags": {"name": "Limanowskiego 02", "network": "Komunikacja Miejska w Krakowie", "network:wikidata": "Q1784404", "operator": "MPK Krak\u00f3w", "operator:wikidata": "Q11780297", "public_transport": "stop_position", "railway": "tram_stop", "ref": "641-2t", "tram": "yes", "url": "http://rozklady.mpk.krakow.pl/aktualne/p/p0641.htm", "wheelchair": "yes"}}, {"type": "node", "id": 622594608, "lat": 50.0195604, "lon": 19.9878036, "tags": {"name": "Wlotowa 02", "network": "Komunikacja Miejska w Krakowie", "network:wikidata": "Q1784404", "operator": "MPK Krak\u00f3w", "operator:wikidata": "Q11780297", "public_transport": "stop_position", "railway": "tram_stop", "ref": "647-2t", "tram": "yes", "url": "http://rozklady.mpk.krakow.pl/aktualne/p/p0647.htm"}}, {"type": "node", "id": 622594610, "lat": 50.0174481, "lon": 19.991213, "tags": {"name": "Prokocim 01", "network": "Komunikacja Miejska w Krakowie", "network:wikidata": "Q1784404", "operator": "MPK Krak\u00f3w", "operator:wikidata": "Q11780297", "public_transport": "stop_position", "railway": "tram_stop", "ref": "648-1t", "tram": "yes", "url": "http://rozklady.mpk.krakow.pl/aktualne/p/p0648.htm"}}, {"type": "node", "id": 622594618, "lat": 50.023157, "lon": 19.9816023, "tags": {"name": "Bie\u017canowska 02", "network": "Komunikacja Miejska w Krakowie", "network:wikidata": "Q1784404", "operator": "MPK Krak\u00f3w", "operator:wikidata": "Q11780297", "public_transport": "stop_position", "railway": "tram_stop", "ref": "646-2t", "tram": "yes", "url": "http://rozklady.mpk.krakow.pl/aktualne/p/p0646.htm"}}, {"type": "node", "id": 622594619, "lat": 50.0266706, "lon": 19.9771807, "tags": {"name": "Kabel 02", "network": "Komunikacja Miejska w Krakowie", "network:wikidata": "Q1784404", "operator": "MPK Krak\u00f3w", "operator:wikidata": "Q11780297", "public_transport": "stop_position", "railway": "tram_stop", "ref": "645-2t", "tram": "yes", "website": "https://rozklady.mpk.krakow.pl/aktualne/p/p0645.htm"}}, {"type": "node", "id": 622594630, "lat": 50.0386872, "lon": 19.9649053, "tags": {"name": "Cmentarz Podg\u00f3rski 02", "network": "Komunikacja Miejska w Krakowie", "network:wikidata": "Q1784404", "operator": "MPK Krak\u00f3w", "operator:wikidata": "Q11780297", "public_transport": "stop_position", "railway": "tram_stop", "ref": "643-2t", "source": "Yahoo! Aerial Imagery", "tram": "yes", "url": "http://rozklady.mpk.krakow.pl/aktualne/p/p0643.htm"}}, {"type": "node", "id": 623520640, "lat": 50.0144573, "lon": 19.9988146, "tags": {"name": "Prokocim Szpital 01", "network": "Komunikacja Miejska w Krakowie", "network:wikidata": "Q1784404", "operator": "MPK Krak\u00f3w", "operator:wikidata": "Q11780297", "public_transport": "stop_position", "railway": "tram_stop", "ref": "649-1t", "tactile_paving": "no", "tram": "yes"}}, {"type": "node", "id": 623520694, "lat": 50.016597, "lon": 20.0071235, "tags": {"name": "Teligi 01", "network": "Komunikacja Miejska w Krakowie", "network:wikidata": "Q1784404", "operator": "MPK Krak\u00f3w", "operator:wikidata": "Q11780297", "public_transport": "stop_position", "railway": "tram_stop", "ref": "655-1t", "tram": "yes", "url": "http://rozklady.mpk.krakow.pl/aktualne/p/p0655.htm"}}, {"type": "node", "id": 623520704, "lat": 50.0161183, "lon": 20.0120318, "tags": {"name": "Nowy Prokocim 01", "network": "Komunikacja Miejska w Krakowie", "network:wikidata": "Q1784404", "operator": "MPK Krak\u00f3w", "operator:wikidata": "Q11780297", "public_transport": "stop_position", "railway": "tram_stop", "ref": "656-1t", "tram": "yes", "url": "http://rozklady.mpk.krakow.pl/aktualne/p/p0656.htm"}}, {"type": "node", "id": 623562103, "lat": 50.0160875, "lon": 20.0191088, "tags": {"name": "\u0106wikli\u0144skiej 01", "network": "Komunikacja Miejska w Krakowie", "network:wikidata": "Q1784404", "operator": "MPK Krak\u00f3w", "operator:wikidata": "Q11780297", "public_transport": "stop_position", "railway": "tram_stop", "ref": "657-1t", "tram": "yes"}}, {"type": "node", "id": 624406882, "lat": 50.0134163, "lon": 19.9643902, "tags": {"name": "Nowos\u0105decka 01", "network": "Komunikacja Miejska w Krakowie", "network:wikidata": "Q1784404", "operator": "MPK Krak\u00f3w", "operator:wikidata": "Q11780297", "passenger_information_display": "yes", "public_transport": "stop_position", "railway": "tram_stop", "ref": "627-1t", "tram": "yes", "url": "http://rozklady.mpk.krakow.pl/aktualne/p/p0627.htm"}}, {"type": "node", "id": 629106144, "lat": 50.0146342, "lon": 19.9276555, "tags": {"name": "Solvay 01", "network": "Komunikacja Miejska w Krakowie", "network:wikidata": "Q1784404", "operator": "MPK Krak\u00f3w", "operator:wikidata": "Q11780297", "public_transport": "stop_position", "railway": "tram_stop", "ref": "743-1t", "tram": "yes", "url": "http://rozklady.mpk.krakow.pl/aktualne/p/p0743.htm"}}, {"type": "node", "id": 629106146, "lat": 50.0166826, "lon": 19.9298225, "tags": {"name": "Ko\u015bciuszkowc\u00f3w 01", "network": "Komunikacja Miejska w Krakowie", "network:wikidata": "Q1784404", "operator": "MPK Krak\u00f3w", "operator:wikidata": "Q11780297", "public_transport": "stop_position", "railway": "tram_stop", "ref": "561-1t", "tram": "yes", "url": "http://rozklady.mpk.krakow.pl/aktualne/p/p0561.htm"}}, {"type": "node", "id": 629106151, "lat": 50.0296814, "lon": 19.9354419, "tags": {"name": "\u0141agiewniki 05", "network": "Komunikacja Miejska w Krakowie", "network:wikidata": "Q1784404", "operator": "MPK Krak\u00f3w", "operator:wikidata": "Q11780297", "public_transport": "stop_position", "railway": "tram_stop", "ref": "553-5t", "tram": "yes", "url": "http://rozklady.mpk.krakow.pl/aktualne/p/p0553.htm"}}, {"type": "node", "id": 629106153, "lat": 50.0298428, "lon": 19.9355476, "tags": {"name": "\u0141agiewniki 03", "network": "Komunikacja Miejska w Krakowie", "network:wikidata": "Q1784404", "operator": "MPK Krak\u00f3w", "operator:wikidata": "Q11780297", "public_transport": "stop_position", "railway": "tram_stop", "ref": "553-3t", "tram": "yes", "url": "http://rozklady.mpk.krakow.pl/aktualne/p/p0553.htm"}}, {"type": "node", "id": 629106157, "lat": 50.0336366, "lon": 19.9386995, "tags": {"name": "Rzemie\u015blnicza 01", "network": "Komunikacja Miejska w Krakowie", "network:wikidata": "Q1784404", "operator": "MPK Krak\u00f3w", "operator:wikidata": "Q11780297", "public_transport": "stop_position", "railway": "tram_stop", "ref": "559-1t", "tram": "yes", "url": "http://rozklady.mpk.krakow.pl/aktualne/p/p0559.htm"}}, {"type": "node", "id": 630945148, "lat": 50.0485659, "lon": 19.9310383, "tags": {"bench": "yes", "name": "Rondo Grunwaldzkie 02", "network": "Komunikacja Miejska w Krakowie", "network:wikidata": "Q1784404", "operator": "MPK Krak\u00f3w", "operator:wikidata": "Q11780297", "public_transport": "stop_position", "railway": "tram_stop", "ref": "501-2t", "shelter": "yes", "tram": "yes", "url": "http://rozklady.mpk.krakow.pl/aktualne/p/p0501.htm", "wheelchair": "yes"}}, {"type": "node", "id": 630945156, "lat": 50.0505021, "lon": 19.9379944, "tags": {"name": "Orzeszkowej 02", "network": "Komunikacja Miejska w Krakowie", "network:wikidata": "Q1784404", "operator": "MPK Krak\u00f3w", "operator:wikidata": "Q11780297", "public_transport": "stop_position", "railway": "tram_stop", "ref": "872-2t", "tram": "yes"}}, {"type": "node", "id": 632417956, "lat": 50.0614171, "lon": 19.9105088, "tags": {"name": "Reymana 02", "network": "Komunikacja Miejska w Krakowie", "network:wikidata": "Q1784404", "operator": "MPK Krak\u00f3w", "operator:wikidata": "Q11780297", "public_transport": "stop_position", "railway": "tram_stop", "ref": "346-2t", "tram": "yes"}}, {"type": "node", "id": 638606056, "lat": 50.0602495, "lon": 19.9712619, "tags": {"name": "Fabryczna 02", "network": "Komunikacja Miejska w Krakowie", "network:wikidata": "Q1784404", "operator": "MPK Krak\u00f3w", "operator:wikidata": "Q11780297", "public_transport": "stop_position", "railway": "tram_stop", "ref": "812-2t", "tram": "yes"}}, {"type": "node", "id": 638606061, "lat": 50.0606836, "lon": 19.9790223, "tags": {"name": "D\u0105bie 02", "network": "Komunikacja Miejska w Krakowie", "network:wikidata": "Q1784404", "operator": "MPK Krak\u00f3w", "operator:wikidata": "Q11780297", "public_transport": "stop_position", "railway": "tram_stop", "ref": "814-2t", "tram": "yes"}}, {"type": "node", "id": 638606074, "lat": 50.0616293, "lon": 19.979717, "tags": {"name": "D\u0105bie 03", "network": "Komunikacja Miejska w Krakowie", "network:wikidata": "Q1784404", "note": "przystanek oznaczony ale w normalnych warunkach nie jest u\u017cywany", "operator": "MPK Krak\u00f3w", "operator:wikidata": "Q11780297", "public_transport": "stop_position", "railway": "tram_stop", "ref": "814-3t", "tram": "yes"}}, {"type": "node", "id": 638606093, "lat": 50.0694252, "lon": 20.0127646, "tags": {"name": "Ga\u0142czy\u0144skiego 02", "network": "Komunikacja Miejska w Krakowie", "network:wikidata": "Q1784404", "operator": "MPK Krak\u00f3w", "operator:wikidata": "Q11780297", "public_transport": "stop_position", "railway": "tram_stop", "ref": "116-2t", "tram": "yes"}}, {"type": "node", "id": 639603957, "lat": 50.067816, "lon": 19.9779202, "tags": {"name": "Bia\u0142ucha 01", "network": "Komunikacja Miejska w Krakowie", "network:wikidata": "Q1784404", "operator": "MPK Krak\u00f3w", "operator:wikidata": "Q11780297", "public_transport": "stop_position", "railway": "tram_stop", "ref": "804-1t", "tram": "yes", "wheelchair": "limited"}}, {"type": "node", "id": 639603980, "lat": 50.0710634, "lon": 19.9828213, "tags": {"name": "TAURON Arena Krak\u00f3w Wieczysta 02", "network": "Komunikacja Miejska w Krakowie", "network:wikidata": "Q1784404", "operator": "MPK Krak\u00f3w", "operator:wikidata": "Q11780297", "public_transport": "stop_position", "railway": "tram_stop", "ref": "805-2t", "tram": "yes"}}, {"type": "node", "id": 651848336, "lat": 50.0660336, "lon": 19.9586869, "tags": {"name": "Rondo Mogilskie 05", "network": "Komunikacja Miejska w Krakowie", "network:wikidata": "Q1784404", "operator": "MPK Krak\u00f3w", "operator:wikidata": "Q11780297", "public_transport": "stop_position", "railway": "tram_stop", "ref": "802-5t", "shelter": "yes", "tram": "yes", "wheelchair": "limited"}}, {"type": "node", "id": 652730395, "lat": 50.0805908, "lon": 19.9380878, "tags": {"name": "Szpital Narutowicza 02", "network": "Komunikacja Miejska w Krakowie", "network:wikidata": "Q1784404", "operator": "MPK Krak\u00f3w", "operator:wikidata": "Q11780297", "public_transport": "stop_position", "railway": "tram_stop", "ref": "382-2t", "tram": "yes"}}, {"type": "node", "id": 652730396, "lat": 50.0845684, "lon": 19.9336199, "tags": {"name": "Bratys\u0142awska 02", "network": "Komunikacja Miejska w Krakowie", "network:wikidata": "Q1784404", "operator": "MPK Krak\u00f3w", "operator:wikidata": "Q11780297", "public_transport": "stop_position", "railway": "tram_stop", "ref": "383-2t", "tram": "yes"}}, {"type": "node", "id": 655410587, "lat": 50.0729622, "lon": 20.0363368, "tags": {"name": "Plac Centralny im. R. Reagana 02", "network": "Komunikacja Miejska w Krakowie", "network:wikidata": "Q1784404", "operator": "MPK Krak\u00f3w", "operator:wikidata": "Q11780297", "public_transport": "stop_position", "railway": "tram_stop", "ref": "105-2t", "tram": "yes"}}, {"type": "node", "id": 773635753, "lat": 50.0677728, "lon": 20.0649239, "tags": {"name": "Bardosa 02", "network": "Komunikacja Miejska w Krakowie", "network:wikidata": "Q1784404", "operator": "MPK Krak\u00f3w", "operator:wikidata": "Q11780297", "public_transport": "stop_position", "railway": "tram_stop", "ref": "211-2t", "tram": "yes", "url": "http://rozklady.mpk.krakow.pl/aktualne/p/p0211.htm"}}, {"type": "node", "id": 773635778, "lat": 50.0697018, "lon": 20.0462366, "tags": {"name": "Os. Na Skarpie 02", "network": "Komunikacja Miejska w Krakowie", "network:wikidata": "Q1784404", "operator": "MPK Krak\u00f3w", "operator:wikidata": "Q11780297", "public_transport": "stop_position", "railway": "tram_stop", "ref": "188-2t", "train": "no", "tram": "yes", "url": "http://rozklady.mpk.krakow.pl/aktualne/p/p0188.htm"}}, {"type": "node", "id": 773635797, "lat": 50.0682318, "lon": 20.0691728, "tags": {"disused:railway": "tram_stop", "name": "Kopiec Wandy", "public_transport": "stop_position", "railway": "tram_stop", "tram": "yes", "url": "http://rozklady.mpk.krakow.pl/aktualne/p/p0212.htm"}}, {"type": "node", "id": 773635866, "lat": 50.0684904, "lon": 20.0529645, "tags": {"name": "Klasztorna 02", "network": "Komunikacja Miejska w Krakowie", "network:wikidata": "Q1784404", "operator": "MPK Krak\u00f3w", "operator:wikidata": "Q11780297", "public_transport": "stop_position", "railway": "tram_stop", "ref": "189-2t", "tram": "yes", "url": "http://rozklady.mpk.krakow.pl/aktualne/p/p0189.htm"}}, {"type": "node", "id": 777395555, "lat": 50.0869673, "lon": 20.0474867, "tags": {"name": "Wa\u0144kowicza 01", "network": "Komunikacja Miejska w Krakowie", "network:wikidata": "Q1784404", "operator": "MPK Krak\u00f3w", "operator:wikidata": "Q11780297", "public_transport": "stop_position", "railway": "tram_stop", "ref": "121-1t", "tram": "yes"}}, {"type": "node", "id": 840467680, "lat": 50.0922428, "lon": 20.0159618, "tags": {"name": "Dunikowskiego 01", "network": "Komunikacja Miejska w Krakowie", "network:wikidata": "Q1784404", "operator": "MPK Krak\u00f3w", "operator:wikidata": "Q11780297", "public_transport": "stop_position", "railway": "tram_stop", "ref": "161-1t", "tram": "yes"}}, {"type": "node", "id": 840467685, "lat": 50.0957618, "lon": 20.0126964, "tags": {"name": "Kleeberga 01", "network": "Komunikacja Miejska w Krakowie", "network:wikidata": "Q1784404", "operator": "MPK Krak\u00f3w", "operator:wikidata": "Q11780297", "public_transport": "stop_position", "railway": "tram_stop", "ref": "144-1t", "tram": "yes"}}, {"type": "node", "id": 957085219, "lat": 50.0467346, "lon": 19.9253445, "tags": {"bus": "yes", "name": "Szwedzka 01", "network": "Komunikacja Miejska w Krakowie", "network:wikidata": "Q1784404", "operator": "MPK Krak\u00f3w", "operator:wikidata": "Q11780297", "public_transport": "stop_position", "railway": "tram_stop", "ref": "522-1t", "tram": "yes"}}, {"type": "node", "id": 1027047776, "lat": 50.0647859, "lon": 19.9444165, "tags": {"name": "Teatr S\u0142owackiego 02", "network": "Komunikacja Miejska w Krakowie", "network:wikidata": "Q1784404", "operator": "MPK Krak\u00f3w", "operator:wikidata": "Q11780297", "public_transport": "stop_position", "railway": "tram_stop", "ref": "801-2t", "tram": "yes", "wheelchair": "yes"}}, {"type": "node", "id": 1301798253, "lat": 50.0943659, "lon": 20.0113895, "tags": {"name": "Rondo Piastowskie 02", "network": "Komunikacja Miejska w Krakowie", "network:wikidata": "Q1784404", "operator": "MPK Krak\u00f3w", "operator:wikidata": "Q11780297", "public_transport": "stop_position", "railway": "tram_stop", "ref": "143-2t", "tram": "yes"}}, {"type": "node", "id": 1310458610, "lat": 50.0163114, "lon": 20.0132092, "tags": {"name": "Nowy Prokocim 02", "network": "Komunikacja Miejska w Krakowie", "network:wikidata": "Q1784404", "operator": "MPK Krak\u00f3w", "operator:wikidata": "Q11780297", "public_transport": "stop_position", "railway": "tram_stop", "ref": "656-2t", "tram": "yes", "url": "http://rozklady.mpk.krakow.pl/aktualne/p/p0656.htm"}}, {"type": "node", "id": 1310458614, "lat": 50.017677, "lon": 19.9909092, "tags": {"name": "Prokocim 02", "network": "Komunikacja Miejska w Krakowie", "network:wikidata": "Q1784404", "operator": "MPK Krak\u00f3w", "operator:wikidata": "Q11780297", "public_transport": "stop_position", "railway": "tram_stop", "ref": "648-2t", "tram": "yes", "url": "http://rozklady.mpk.krakow.pl/aktualne/p/p0648.htm", "wikidata": "Q116503103"}}, {"type": "node", "id": 1310458632, "lat": 50.0145666, "lon": 20.0001625, "tags": {"name": "Prokocim Szpital 02", "network": "Komunikacja Miejska w Krakowie", "network:wikidata": "Q1784404", "operator": "MPK Krak\u00f3w", "operator:wikidata": "Q11780297", "public_transport": "stop_position", "railway": "tram_stop", "ref": "649-2t", "tactile_paving": "yes", "tram": "yes"}}, {"type": "node", "id": 1310458642, "lat": 50.0165006, "lon": 20.0079316, "tags": {"name": "Teligi 02", "network": "Komunikacja Miejska w Krakowie", "network:wikidata": "Q1784404", "operator": "MPK Krak\u00f3w", "operator:wikidata": "Q11780297", "public_transport": "stop_position", "railway": "tram_stop", "ref": "655-2t", "tram": "yes", "url": "http://rozklady.mpk.krakow.pl/aktualne/p/p0655.htm"}}, {"type": "node", "id": 1316407565, "lat": 50.059823, "lon": 19.9209755, "tags": {"name": "Oleandry 01", "network": "Komunikacja Miejska w Krakowie", "network:wikidata": "Q1784404", "operator": "MPK Krak\u00f3w", "operator:wikidata": "Q11780297", "public_transport": "stop_position", "railway": "tram_stop", "ref": "345-1t", "tram": "yes"}}, {"type": "node", "id": 1316407567, "lat": 50.059873, "lon": 19.9204909, "tags": {"name": "Oleandry 02", "network": "Komunikacja Miejska w Krakowie", "network:wikidata": "Q1784404", "operator": "MPK Krak\u00f3w", "operator:wikidata": "Q11780297", "public_transport": "stop_position", "railway": "tram_stop", "ref": "345-2t", "tram": "yes"}}, {"type": "node", "id": 1316407578, "lat": 50.059356, "lon": 19.9242497, "tags": {"name": "Muzeum Narodowe 02", "network": "Komunikacja Miejska w Krakowie", "network:wikidata": "Q1784404", "operator": "MPK Krak\u00f3w", "operator:wikidata": "Q11780297", "public_transport": "stop_position", "railway": "tram_stop", "ref": "825-2t", "tram": "yes", "wheelchair": "yes"}}, {"type": "node", "id": 1318766524, "lat": 50.0699882, "lon": 20.0666708, "tags": {"name": "Kopiec Wandy 01", "network": "Komunikacja Miejska w Krakowie", "network:wikidata": "Q1784404", "operator": "MPK Krak\u00f3w", "operator:wikidata": "Q11780297", "public_transport": "stop_position", "railway": "tram_stop", "ref": "212-1t", "tram": "yes"}}, {"type": "node", "id": 1345322499, "lat": 50.04412, "lon": 19.9466528, "tags": {"disused:public_transport": "stop_position", "disused:tram": "yes", "name": "Korona 03", "network": "Komunikacja Miejska w Krakowie", "network:wikidata": "Q1784404", "operator": "MPK Krak\u00f3w", "operator:wikidata": "Q11780297", "public_transport": "stop_position", "railway": "tram_stop", "ref": "556-3t", "tram": "yes", "url": "http://rozklady.mpk.krakow.pl/aktualne/p/p0556.htm", "wheelchair": "yes"}}, {"type": "node", "id": 1368799462, "lat": 50.085196, "lon": 20.0741405, "tags": {"disused:public_transport": "stop_position", "name": "Blokowa", "network": "Komunikacja Miejska w Krakowie", "network:wikidata": "Q1784404", "operator": "MPK Krak\u00f3w", "operator:wikidata": "Q11780297", "railway": "tram_stop", "tram": "yes"}}, {"type": "node", "id": 1369031767, "lat": 50.0877219, "lon": 20.0639455, "tags": {"name": "Elektromonta\u017c 02", "network": "Komunikacja Miejska w Krakowie", "network:wikidata": "Q1784404", "operator": "MPK Krak\u00f3w", "operator:wikidata": "Q11780297", "public_transport": "stop_position", "railway": "tram_stop", "ref": "194-2t", "request_stop": "yes", "tram": "yes"}}, {"type": "node", "id": 1418989418, "lat": 50.0499345, "lon": 19.964249, "tags": {"name": "Zab\u0142ocie 02", "network": "Komunikacja Miejska w Krakowie", "network:wikidata": "Q1784404", "operator": "MPK Krak\u00f3w", "operator:wikidata": "Q11780297", "public_transport": "stop_position", "railway": "tram_stop", "ref": "619-2t", "tram": "yes"}}, {"type": "node", "id": 1418989432, "lat": 50.0490275, "lon": 19.9675709, "tags": {"name": "Klimeckiego 02", "network": "Komunikacja Miejska w Krakowie", "network:wikidata": "Q1784404", "operator": "MPK Krak\u00f3w", "operator:wikidata": "Q11780297", "public_transport": "stop_position", "railway": "tram_stop", "ref": "294-2t", "tram": "yes"}}, {"type": "node", "id": 1418995540, "lat": 50.0406529, "lon": 19.9778697, "tags": {"name": "Gromadzka 02", "network": "Komunikacja Miejska w Krakowie", "network:wikidata": "Q1784404", "operator": "MPK Krak\u00f3w", "operator:wikidata": "Q11780297", "public_transport": "stop_position", "railway": "tram_stop", "ref": "671-2t", "tram": "yes"}}, {"type": "node", "id": 1418995542, "lat": 50.0446379, "lon": 19.9735635, "tags": {"name": "Kukli\u0144skiego 02", "network": "Komunikacja Miejska w Krakowie", "network:wikidata": "Q1784404", "operator": "MPK Krak\u00f3w", "operator:wikidata": "Q11780297", "public_transport": "stop_position", "railway": "tram_stop", "ref": "670-2t", "tram": "yes"}}, {"type": "node", "id": 1418995562, "lat": 50.0444969, "lon": 19.9735742, "tags": {"name": "Kukli\u0144skiego 01", "network": "Komunikacja Miejska w Krakowie", "network:wikidata": "Q1784404", "operator": "MPK Krak\u00f3w", "operator:wikidata": "Q11780297", "public_transport": "stop_position", "railway": "tram_stop", "ref": "670-1t", "tram": "yes"}}, {"type": "node", "id": 1445499305, "lat": 50.0729422, "lon": 19.9560511, "tags": {"name": "Cmentarz Rakowicki 02", "network": "Komunikacja Miejska w Krakowie", "network:wikidata": "Q1784404", "operator": "MPK Krak\u00f3w", "operator:wikidata": "Q11780297", "public_transport": "stop_position", "railway": "tram_stop", "ref": "854-2t", "tram": "yes"}}, {"type": "node", "id": 1518864572, "lat": 50.0598125, "lon": 19.9424201, "tags": {"name": "Poczta G\u0142\u00f3wna 01", "network": "Komunikacja Miejska w Krakowie", "network:wikidata": "Q1784404", "operator": "MPK Krak\u00f3w", "operator:wikidata": "Q11780297", "public_transport": "stop_position", "railway": "tram_stop", "ref": "806-1t", "tram": "yes", "wheelchair": "no"}}, {"type": "node", "id": 1539953455, "lat": 50.0841098, "lon": 20.0717182, "tags": {"disused:public_transport": "stop_position", "name": "Mrozowa", "network": "Komunikacja Miejska w Krakowie", "network:wikidata": "Q1784404", "operator": "MPK Krak\u00f3w", "operator:wikidata": "Q11780297", "railway": "tram_stop", "tram": "yes"}}, {"type": "node", "id": 1539953465, "lat": 50.0854874, "lon": 20.0746701, "tags": {"disused:public_transport": "stop_position", "name": "Blokowa", "network": "Komunikacja Miejska w Krakowie", "network:wikidata": "Q1784404", "operator": "MPK Krak\u00f3w", "operator:wikidata": "Q11780297", "railway": "tram_stop", "tram": "yes"}}, {"type": "node", "id": 1611745640, "lat": 50.0406485, "lon": 19.9843731, "tags": {"name": "Lipska 01", "network": "Komunikacja Miejska w Krakowie", "network:wikidata": "Q1784404", "operator": "MPK Krak\u00f3w", "operator:wikidata": "Q11780297", "public_transport": "stop_position", "railway": "tram_stop", "ref": "674-1t", "tram": "yes"}}, {"type": "node", "id": 1611745642, "lat": 50.0406845, "lon": 19.9816557, "tags": {"name": "Lipska 02", "network": "Komunikacja Miejska w Krakowie", "network:wikidata": "Q1784404", "operator": "MPK Krak\u00f3w", "operator:wikidata": "Q11780297", "public_transport": "stop_position", "railway": "tram_stop", "ref": "674-2t", "tram": "yes"}}, {"type": "node", "id": 1611745646, "lat": 50.0405497, "lon": 19.9909354, "tags": {"name": "Rzebika 02", "network": "Komunikacja Miejska w Krakowie", "network:wikidata": "Q1784404", "operator": "MPK Krak\u00f3w", "operator:wikidata": "Q11780297", "public_transport": "stop_position", "railway": "tram_stop", "ref": "678-2t", "tram": "yes"}}, {"type": "node", "id": 1611745699, "lat": 50.0404345, "lon": 19.9926414, "tags": {"name": "Rzebika 01", "network": "Komunikacja Miejska w Krakowie", "network:wikidata": "Q1784404", "operator": "MPK Krak\u00f3w", "operator:wikidata": "Q11780297", "public_transport": "stop_position", "railway": "tram_stop", "ref": "678-1t", "tram": "yes"}}, {"type": "node", "id": 1696191638, "lat": 50.0936634, "lon": 20.0045173, "tags": {"name": "Os. Z\u0142otego Wieku 02", "network": "Komunikacja Miejska w Krakowie", "network:wikidata": "Q1784404", "operator": "MPK Krak\u00f3w", "operator:wikidata": "Q11780297", "public_transport": "stop_position", "railway": "tram_stop", "ref": "141-2t", "tram": "yes", "wikidata": "Q116457481"}}, {"type": "node", "id": 1763772088, "lat": 50.0681729, "lon": 20.0692229, "tags": {"disused:railway": "tram_stop", "name": "Kopiec Wandy", "public_transport": "stop_position", "railway": "tram_stop", "tram": "yes"}}, {"type": "node", "id": 1764579350, "lat": 50.0604483, "lon": 19.9701478, "tags": {"name": "Fabryczna 01", "network": "Komunikacja Miejska w Krakowie", "network:wikidata": "Q1784404", "operator": "MPK Krak\u00f3w", "operator:wikidata": "Q11780297", "public_transport": "stop_position", "railway": "tram_stop", "ref": "812-1t", "tram": "yes"}}, {"type": "node", "id": 1764757654, "lat": 50.0646256, "lon": 20.0842809, "tags": {"name": "Giedroycia 01", "network": "Komunikacja Miejska w Krakowie", "network:wikidata": "Q1784404", "old_name": "Je\u017cynowa", "operator": "MPK Krak\u00f3w", "operator:wikidata": "Q11780297", "public_transport": "stop_position", "railway": "tram_stop", "ref": "214-1t", "tram": "yes"}}, {"type": "node", "id": 1764757662, "lat": 50.0647621, "lon": 20.085065, "tags": {"name": "Giedroycia 02", "network": "Komunikacja Miejska w Krakowie", "network:wikidata": "Q1784404", "old_name": "Je\u017cynowa", "operator": "MPK Krak\u00f3w", "operator:wikidata": "Q11780297", "public_transport": "stop_position", "railway": "tram_stop", "ref": "214-2t", "tram": "yes"}}, {"type": "node", "id": 1764757687, "lat": 50.0664021, "lon": 20.0713156, "tags": {"name": "Fort Mogi\u0142a 02", "network": "Komunikacja Miejska w Krakowie", "network:wikidata": "Q1784404", "operator": "MPK Krak\u00f3w", "operator:wikidata": "Q11780297", "public_transport": "stop_position", "railway": "tram_stop", "ref": "889-2t", "tram": "yes"}}, {"type": "node", "id": 1764757751, "lat": 50.0698185, "lon": 20.0946953, "tags": {"name": "Meksyk 01", "network": "Komunikacja Miejska w Krakowie", "network:wikidata": "Q1784404", "operator": "MPK Krak\u00f3w", "operator:wikidata": "Q11780297", "public_transport": "stop_position", "railway": "tram_stop", "ref": "216-1t", "tram": "yes"}}, {"type": "node", "id": 1764757754, "lat": 50.0698961, "lon": 20.0954505, "tags": {"name": "Meksyk 02", "network": "Komunikacja Miejska w Krakowie", "network:wikidata": "Q1784404", "operator": "MPK Krak\u00f3w", "operator:wikidata": "Q11780297", "public_transport": "stop_position", "railway": "tram_stop", "ref": "216-2t", "tram": "yes"}}, {"type": "node", "id": 1764757832, "lat": 50.072892, "lon": 20.1168877, "tags": {"name": "Plesz\u00f3w 01", "network": "Komunikacja Miejska w Krakowie", "network:wikidata": "Q1784404", "operator": "MPK Krak\u00f3w", "operator:wikidata": "Q11780297", "public_transport": "stop_position", "railway": "tram_stop", "ref": "218-1t", "tram": "yes", "url": "http://rozklady.mpk.krakow.pl/aktualne/p/p0218.htm"}}, {"type": "node", "id": 1768224650, "lat": 50.0665192, "lon": 19.9705785, "tags": {"name": "Cysters\u00f3w 01", "network": "Komunikacja Miejska w Krakowie", "network:wikidata": "Q1784404", "operator": "MPK Krak\u00f3w", "operator:wikidata": "Q11780297", "public_transport": "stop_position", "railway": "tram_stop", "ref": "803-1t", "tram": "yes"}}, {"type": "node", "id": 1768224656, "lat": 50.0665336, "lon": 19.969156, "tags": {"name": "Cysters\u00f3w 02", "network": "Komunikacja Miejska w Krakowie", "network:wikidata": "Q1784404", "operator": "MPK Krak\u00f3w", "operator:wikidata": "Q11780297", "public_transport": "stop_position", "railway": "tram_stop", "ref": "803-2t", "tram": "yes"}}, {"type": "node", "id": 1768224703, "lat": 50.0676305, "lon": 19.9772962, "tags": {"name": "Bia\u0142ucha 02", "network": "Komunikacja Miejska w Krakowie", "network:wikidata": "Q1784404", "operator": "MPK Krak\u00f3w", "operator:wikidata": "Q11780297", "public_transport": "stop_position", "railway": "tram_stop", "ref": "804-2t", "tram": "yes", "wheelchair": "limited"}}, {"type": "node", "id": 1768224723, "lat": 50.0717726, "lon": 19.9838195, "tags": {"name": "TAURON Arena Krak\u00f3w Wieczysta 01", "network": "Komunikacja Miejska w Krakowie", "network:wikidata": "Q1784404", "operator": "MPK Krak\u00f3w", "operator:wikidata": "Q11780297", "public_transport": "stop_position", "railway": "tram_stop", "ref": "805-1t", "tram": "yes", "wheelchair": "yes"}}, {"type": "node", "id": 1769087786, "lat": 50.0849127, "lon": 20.0376791, "tags": {"name": "Cienista 02", "network": "Komunikacja Miejska w Krakowie", "network:wikidata": "Q1784404", "operator": "MPK Krak\u00f3w", "operator:wikidata": "Q11780297", "public_transport": "stop_position", "railway": "tram_stop", "ref": "120-2t", "tram": "yes"}}, {"type": "node", "id": 1769087828, "lat": 50.0765045, "lon": 20.0314521, "tags": {"name": "Os. Zgody 02", "network": "Komunikacja Miejska w Krakowie", "network:wikidata": "Q1784404", "operator": "MPK Krak\u00f3w", "operator:wikidata": "Q11780297", "public_transport": "stop_position", "railway": "tram_stop", "ref": "136-2t", "tram": "yes"}}, {"type": "node", "id": 1769087965, "lat": 50.0818674, "lon": 20.0320304, "tags": {"name": "Teatr Ludowy 02", "network": "Komunikacja Miejska w Krakowie", "network:wikidata": "Q1784404", "operator": "MPK Krak\u00f3w", "operator:wikidata": "Q11780297", "public_transport": "stop_position", "railway": "tram_stop", "ref": "119-2t", "tram": "yes"}}, {"type": "node", "id": 1769088034, "lat": 50.0869516, "lon": 20.0476955, "tags": {"name": "Wa\u0144kowicza 02", "network": "Komunikacja Miejska w Krakowie", "network:wikidata": "Q1784404", "operator": "MPK Krak\u00f3w", "operator:wikidata": "Q11780297", "public_transport": "stop_position", "railway": "tram_stop", "ref": "121-2t", "tram": "yes"}}, {"type": "node", "id": 1770194211, "lat": 50.0876862, "lon": 20.0641733, "tags": {"name": "Elektromonta\u017c 01", "network": "Komunikacja Miejska w Krakowie", "network:wikidata": "Q1784404", "operator": "MPK Krak\u00f3w", "operator:wikidata": "Q11780297", "public_transport": "stop_position", "railway": "tram_stop", "ref": "194-1t", "request_stop": "yes", "tram": "yes"}}, {"type": "node", "id": 1770194212, "lat": 50.0798254, "lon": 20.0658531, "tags": {"name": "Kombinat 02", "network": "Komunikacja Miejska w Krakowie", "network:wikidata": "Q1784404", "operator": "MPK Krak\u00f3w", "operator:wikidata": "Q11780297", "public_transport": "stop_position", "railway": "tram_stop", "ref": "107-2t", "tram": "yes"}}, {"type": "node", "id": 1770978364, "lat": 50.0899399, "lon": 20.0213069, "tags": {"name": "Rondo Hipokratesa 02", "network": "Komunikacja Miejska w Krakowie", "network:wikidata": "Q1784404", "operator": "MPK Krak\u00f3w", "operator:wikidata": "Q11780297", "public_transport": "stop_position", "railway": "tram_stop", "ref": "162-2t", "tram": "yes", "wikidata": "Q116458050"}}, {"type": "node", "id": 1770978365, "lat": 50.0843668, "lon": 20.0208583, "tags": {"name": "DH Wanda 02", "network": "Komunikacja Miejska w Krakowie", "network:wikidata": "Q1784404", "operator": "MPK Krak\u00f3w", "operator:wikidata": "Q11780297", "public_transport": "stop_position", "railway": "tram_stop", "ref": "135-2t", "tram": "yes"}}, {"type": "node", "id": 1770978367, "lat": 50.0924696, "lon": 20.0155689, "tags": {"name": "Dunikowskiego 02", "network": "Komunikacja Miejska w Krakowie", "network:wikidata": "Q1784404", "operator": "MPK Krak\u00f3w", "operator:wikidata": "Q11780297", "public_transport": "stop_position", "railway": "tram_stop", "ref": "161-2t", "tram": "yes"}}, {"type": "node", "id": 1811875207, "lat": 50.067396, "lon": 20.005616, "tags": {"name": "Rondo 308. Dywizjonu 01", "network": "Komunikacja Miejska w Krakowie", "network:wikidata": "Q1784404", "operator": "MPK Krak\u00f3w", "operator:wikidata": "Q11780297", "public_transport": "stop_position", "railway": "tram_stop", "ref": "115-1t", "tram": "yes"}}, {"type": "node", "id": 1882247981, "lat": 50.0305226, "lon": 19.931716, "tags": {"name": "Bro\u017cka 02", "network": "Komunikacja Miejska w Krakowie", "network:wikidata": "Q1784404", "operator": "MPK Krak\u00f3w", "operator:wikidata": "Q11780297", "public_transport": "stop_position", "railway": "tram_stop", "ref": "552-2t", "tram": "yes"}}, {"type": "node", "id": 1887802513, "lat": 50.0649129, "lon": 19.9592821, "tags": {"name": "Rondo Mogilskie 03", "network": "Komunikacja Miejska w Krakowie", "network:wikidata": "Q1784404", "operator": "MPK Krak\u00f3w", "operator:wikidata": "Q11780297", "public_transport": "stop_position", "railway": "tram_stop", "ref": "802-3t", "tram": "yes"}}, {"type": "node", "id": 1887802514, "lat": 50.065055, "lon": 19.9592977, "tags": {"name": "Rondo Mogilskie 04", "network": "Komunikacja Miejska w Krakowie", "network:wikidata": "Q1784404", "operator": "MPK Krak\u00f3w", "operator:wikidata": "Q11780297", "public_transport": "stop_position", "railway": "tram_stop", "ref": "802-4t", "tram": "yes"}}, {"type": "node", "id": 1887812661, "lat": 50.0657653, "lon": 19.9598677, "tags": {"name": "Rondo Mogilskie 02", "network": "Komunikacja Miejska w Krakowie", "network:wikidata": "Q1784404", "operator": "MPK Krak\u00f3w", "operator:wikidata": "Q11780297", "public_transport": "stop_position", "railway": "tram_stop", "ref": "802-2t", "tram": "yes"}}, {"type": "node", "id": 1888516300, "lat": 50.068204, "lon": 19.9477353, "tags": {"layer": "-2", "name": "Dworzec G\u0142\u00f3wny Tunel 01", "name:en": "Main Station Tunnel", "public_transport": "stop_position", "railway": "tram_stop", "tram": "yes"}}, {"type": "node", "id": 1889519517, "lat": 50.0400632, "lon": 20.0015026, "tags": {"name": "Ma\u0142y P\u0142asz\u00f3w P+R 01", "network": "Komunikacja Miejska w Krakowie", "network:wikidata": "Q1784404", "operator": "MPK Krak\u00f3w", "operator:wikidata": "Q11780297", "public_transport": "stop_position", "railway": "tram_stop", "ref": "711-1t", "tram": "yes"}}, {"type": "node", "id": 1890503287, "lat": 50.0193414, "lon": 19.9880899, "tags": {"name": "Wlotowa 01", "network": "Komunikacja Miejska w Krakowie", "network:wikidata": "Q1784404", "operator": "MPK Krak\u00f3w", "operator:wikidata": "Q11780297", "public_transport": "stop_position", "railway": "tram_stop", "ref": "647-1t", "tram": "yes", "url": "http://rozklady.mpk.krakow.pl/aktualne/p/p0647.htm", "wheelchair": "no"}}, {"type": "node", "id": 1890503289, "lat": 50.022972, "lon": 19.9818289, "tags": {"name": "Bie\u017canowska 01", "network": "Komunikacja Miejska w Krakowie", "network:wikidata": "Q1784404", "operator": "MPK Krak\u00f3w", "operator:wikidata": "Q11780297", "public_transport": "stop_position", "railway": "tram_stop", "ref": "646-1t", "tram": "yes", "url": "http://rozklady.mpk.krakow.pl/aktualne/p/p0646.htm"}}, {"type": "node", "id": 1890503305, "lat": 50.0272994, "lon": 19.9764761, "tags": {"name": "Kabel 01", "network": "Komunikacja Miejska w Krakowie", "network:wikidata": "Q1784404", "operator": "MPK Krak\u00f3w", "operator:wikidata": "Q11780297", "public_transport": "stop_position", "railway": "tram_stop", "ref": "645-1t", "tram": "yes", "url": "http://rozklady.mpk.krakow.pl/aktualne/p/p0645.htm"}}, {"type": "node", "id": 1890503312, "lat": 50.0333626, "lon": 19.9703541, "tags": {"name": "Dworcowa 01", "network": "Komunikacja Miejska w Krakowie", "network:wikidata": "Q1784404", "operator": "MPK Krak\u00f3w", "operator:wikidata": "Q11780297", "public_transport": "stop_position", "railway": "tram_stop", "ref": "644-1t", "tram": "yes", "url": "http://rozklady.mpk.krakow.pl/aktualne/p/p0644.htm"}}, {"type": "node", "id": 1890503349, "lat": 50.0390832, "lon": 19.9644381, "tags": {"name": "Cmentarz Podg\u00f3rski 01", "network": "Komunikacja Miejska w Krakowie", "network:wikidata": "Q1784404", "operator": "MPK Krak\u00f3w", "operator:wikidata": "Q11780297", "public_transport": "stop_position", "railway": "tram_stop", "ref": "643-1t", "tram": "yes", "url": "http://rozklady.mpk.krakow.pl/aktualne/p/p0643.htm"}}, {"type": "node", "id": 1951264398, "lat": 50.0807628, "lon": 19.9376786, "tags": {"name": "Szpital Narutowicza 01", "network": "Komunikacja Miejska w Krakowie", "network:wikidata": "Q1784404", "operator": "MPK Krak\u00f3w", "operator:wikidata": "Q11780297", "public_transport": "stop_position", "railway": "tram_stop", "ref": "382-1t", "tram": "yes"}}, {"type": "node", "id": 1951264400, "lat": 50.0159521, "lon": 20.0199973, "tags": {"name": "\u0106wikli\u0144skiej 02", "network": "Komunikacja Miejska w Krakowie", "network:wikidata": "Q1784404", "operator": "MPK Krak\u00f3w", "operator:wikidata": "Q11780297", "public_transport": "stop_position", "railway": "tram_stop", "ref": "657-2t", "tram": "yes"}}, {"type": "node", "id": 1961123173, "lat": 50.076939, "lon": 20.0308193, "tags": {"name": "Os. Zgody 01", "network": "Komunikacja Miejska w Krakowie", "network:wikidata": "Q1784404", "operator": "MPK Krak\u00f3w", "operator:wikidata": "Q11780297", "public_transport": "stop_position", "railway": "tram_stop", "ref": "136-1t", "tram": "yes"}}, {"type": "node", "id": 1995730500, "lat": 50.0657692, "lon": 19.9596415, "tags": {"name": "Rondo Mogilskie 01", "network": "Komunikacja Miejska w Krakowie", "network:wikidata": "Q1784404", "operator": "MPK Krak\u00f3w", "operator:wikidata": "Q11780297", "public_transport": "stop_position", "railway": "tram_stop", "ref": "802-1t", "tram": "yes"}}, {"type": "node", "id": 2017952988, "lat": 50.0207618, "lon": 19.898039, "tags": {"name": "Chmieleniec 02", "network": "Komunikacja Miejska w Krakowie", "network:wikidata": "Q1784404", "operator": "MPK Krak\u00f3w", "operator:wikidata": "Q11780297", "public_transport": "stop_position", "railway": "tram_stop", "ref": "292-2t", "tram": "yes", "wheelchair": "yes"}}, {"type": "node", "id": 2017952992, "lat": 50.0203808, "lon": 19.8975129, "tags": {"name": "Chmieleniec 01", "network": "Komunikacja Miejska w Krakowie", "network:wikidata": "Q1784404", "operator": "MPK Krak\u00f3w", "operator:wikidata": "Q11780297", "public_transport": "stop_position", "railway": "tram_stop", "ref": "292-1t", "tram": "yes", "wheelchair": "yes"}}, {"type": "node", "id": 2017955948, "lat": 50.0183937, "lon": 19.8894451, "tags": {"name": "Czerwone Maki P+R", "public_transport": "stop_position", "railway": "tram_stop", "tram": "yes", "url": "http://rozklady.mpk.krakow.pl/"}}, {"type": "node", "id": 2017955951, "lat": 50.0179916, "lon": 19.8890939, "tags": {"name": "Czerwone Maki P+R 01", "network": "Komunikacja Miejska w Krakowie", "network:wikidata": "Q1784404", "operator": "MPK Krak\u00f3w", "operator:wikidata": "Q11780297", "public_transport": "stop_position", "railway": "tram_stop", "ref": "293-1t", "tram": "yes", "wheelchair": "yes"}}, {"type": "node", "id": 2028510896, "lat": 50.0602657, "lon": 19.9181212, "tags": {"name": "Park Jordana 01", "network": "Komunikacja Miejska w Krakowie", "network:wikidata": "Q1784404", "operator": "MPK Krak\u00f3w", "operator:wikidata": "Q11780297", "public_transport": "stop_position", "railway": "tram_stop", "ref": "453-1t", "tram": "yes"}}, {"type": "node", "id": 2028510897, "lat": 50.0603244, "lon": 19.9175742, "tags": {"name": "Park Jordana 02", "network": "Komunikacja Miejska w Krakowie", "network:wikidata": "Q1784404", "operator": "MPK Krak\u00f3w", "operator:wikidata": "Q11780297", "public_transport": "stop_position", "railway": "tram_stop", "ref": "453-2t", "tram": "yes"}}, {"type": "node", "id": 2052183688, "lat": 50.0450693, "lon": 19.9220157, "tags": {"name": "Kapelanka 02", "network": "Komunikacja Miejska w Krakowie", "network:wikidata": "Q1784404", "operator": "MPK Krak\u00f3w", "operator:wikidata": "Q11780297", "public_transport": "stop_position", "railway": "tram_stop", "ref": "523-2t", "tram": "yes"}}, {"type": "node", "id": 2052183689, "lat": 50.034407, "lon": 19.9259293, "tags": {"name": "Kobierzy\u0144ska 01", "network": "Komunikacja Miejska w Krakowie", "network:wikidata": "Q1784404", "operator": "MPK Krak\u00f3w", "operator:wikidata": "Q11780297", "public_transport": "stop_position", "railway": "tram_stop", "ref": "525-1t", "tram": "yes"}}, {"type": "node", "id": 2052183690, "lat": 50.0346305, "lon": 19.9259736, "tags": {"name": "Kobierzy\u0144ska 02", "network": "Komunikacja Miejska w Krakowie", "network:wikidata": "Q1784404", "operator": "MPK Krak\u00f3w", "operator:wikidata": "Q11780297", "public_transport": "stop_position", "railway": "tram_stop", "ref": "525-2t", "tram": "yes"}}, {"type": "node", "id": 2052183691, "lat": 50.0408245, "lon": 19.9245395, "tags": {"name": "S\u0142omiana 02", "network": "Komunikacja Miejska w Krakowie", "network:wikidata": "Q1784404", "operator": "MPK Krak\u00f3w", "operator:wikidata": "Q11780297", "public_transport": "stop_position", "railway": "tram_stop", "ref": "524-2t", "tram": "yes"}}, {"type": "node", "id": 2052183693, "lat": 50.0414212, "lon": 19.924084, "tags": {"name": "S\u0142omiana 01", "network": "Komunikacja Miejska w Krakowie", "network:wikidata": "Q1784404", "operator": "MPK Krak\u00f3w", "operator:wikidata": "Q11780297", "public_transport": "stop_position", "railway": "tram_stop", "ref": "524-1t", "tram": "yes", "url": "http://rozklady.mpk.krakow.pl/aktualne/p/p0524.htm"}}, {"type": "node", "id": 2065560164, "lat": 50.0435158, "lon": 19.9465449, "tags": {"name": "Korona 01", "network": "Komunikacja Miejska w Krakowie", "network:wikidata": "Q1784404", "operator": "MPK Krak\u00f3w", "operator:wikidata": "Q11780297", "public_transport": "stop_position", "railway": "tram_stop", "ref": "556-1t", "tram": "yes", "url": "http://rozklady.mpk.krakow.pl/aktualne/p/p0556.htm", "wheelchair": "no"}}, {"type": "node", "id": 2067123479, "lat": 50.0440512, "lon": 19.9475031, "tags": {"name": "Korona 02", "network": "Komunikacja Miejska w Krakowie", "network:wikidata": "Q1784404", "operator": "MPK Krak\u00f3w", "operator:wikidata": "Q11780297", "public_transport": "stop_position", "railway": "tram_stop", "ref": "556-2t", "tram": "yes", "url": "http://rozklady.mpk.krakow.pl/aktualne/p/p0556.htm", "wheelchair": "no"}}, {"type": "node", "id": 2134334911, "lat": 50.0234925, "lon": 19.9791361, "tags": {"name": "Bie\u017canowska 03", "network": "Komunikacja Miejska w Krakowie", "network:wikidata": "Q1784404", "operator": "MPK Krak\u00f3w", "operator:wikidata": "Q11780297", "public_transport": "stop_position", "railway": "tram_stop", "ref": "646-3t", "tram": "yes", "url": "http://rozklady.mpk.krakow.pl/aktualne/p/p0646.htm"}}, {"type": "node", "id": 2134334912, "lat": 50.0182251, "lon": 19.9775239, "tags": {"name": "Dauna 01", "network": "Komunikacja Miejska w Krakowie", "network:wikidata": "Q1784404", "operator": "MPK Krak\u00f3w", "operator:wikidata": "Q11780297", "public_transport": "stop_position", "railway": "tram_stop", "ref": "635-1t", "tram": "yes", "url": "http://rozklady.mpk.krakow.pl/aktualne/p/p0635.htm"}}, {"type": "node", "id": 2134334913, "lat": 50.018548, "lon": 19.9775762, "tags": {"name": "Dauna 02", "network": "Komunikacja Miejska w Krakowie", "network:wikidata": "Q1784404", "operator": "MPK Krak\u00f3w", "operator:wikidata": "Q11780297", "public_transport": "stop_position", "railway": "tram_stop", "ref": "635-2t", "tram": "yes", "website": "https://rozklady.mpk.krakow.pl/aktualne/p/p0635.htm"}}, {"type": "node", "id": 2134334914, "lat": 50.0155033, "lon": 19.971841, "tags": {"name": "Piaski Nowe 02", "network": "Komunikacja Miejska w Krakowie", "network:wikidata": "Q1784404", "operator": "MPK Krak\u00f3w", "operator:wikidata": "Q11780297", "public_transport": "stop_position", "railway": "tram_stop", "ref": "634-2t", "tram": "yes", "website": "https://rozklady.mpk.krakow.pl/aktualne/p/p0634.htm"}}, {"type": "node", "id": 2134334915, "lat": 50.0154221, "lon": 19.9713183, "tags": {"name": "Piaski Nowe 01", "network": "Komunikacja Miejska w Krakowie", "network:wikidata": "Q1784404", "operator": "MPK Krak\u00f3w", "operator:wikidata": "Q11780297", "public_transport": "stop_position", "railway": "tram_stop", "ref": "634-1t", "tram": "yes", "url": "http://rozklady.mpk.krakow.pl/aktualne/p/p0634.htm"}}, {"type": "node", "id": 2163355802, "lat": 50.0739882, "lon": 19.9992143, "tags": {"disused": "tram_stop", "name": "AKF / PK 01", "network": "Komunikacja Miejska w Krakowie", "network:wikidata": "Q1784404", "operator": "MPK Krak\u00f3w", "operator:wikidata": "Q11780297", "public_transport": "stop_position", "railway": "tram_stop", "ref": "100-1t", "tram": "yes", "wheelchair": "yes"}}, {"type": "node", "id": 2163355803, "lat": 50.0740361, "lon": 20.0112874, "tags": {"name": "Czy\u017cyny 02", "network": "Komunikacja Miejska w Krakowie", "network:wikidata": "Q1784404", "operator": "MPK Krak\u00f3w", "operator:wikidata": "Q11780297", "public_transport": "stop_position", "railway": "tram_stop", "ref": "102-2t", "tram": "yes"}}, {"type": "node", "id": 2163355804, "lat": 50.0739733, "lon": 20.0115707, "tags": {"name": "Czy\u017cyny 01", "network": "Komunikacja Miejska w Krakowie", "network:wikidata": "Q1784404", "operator": "MPK Krak\u00f3w", "operator:wikidata": "Q11780297", "public_transport": "stop_position", "railway": "tram_stop", "ref": "102-1t", "tram": "yes"}}, {"type": "node", "id": 2163355806, "lat": 50.0786832, "lon": 20.0659976, "tags": {"name": "Kombinat 03", "network": "Komunikacja Miejska w Krakowie", "network:wikidata": "Q1784404", "operator": "MPK Krak\u00f3w", "operator:wikidata": "Q11780297", "public_transport": "stop_position", "railway": "tram_stop", "ref": "107-3t", "tram": "yes"}}, {"type": "node", "id": 2163355807, "lat": 50.0721971, "lon": 20.0298149, "tags": {"name": "Os. Kolorowe 01", "network": "Komunikacja Miejska w Krakowie", "network:wikidata": "Q1784404", "operator": "MPK Krak\u00f3w", "operator:wikidata": "Q11780297", "public_transport": "stop_position", "railway": "tram_stop", "ref": "104-1t", "tram": "yes"}}, {"type": "node", "id": 2163355809, "lat": 50.0742774, "lon": 20.0048861, "tags": {"name": "Stella-Sawickiego 01", "network": "Komunikacja Miejska w Krakowie", "network:wikidata": "Q1784404", "operator": "MPK Krak\u00f3w", "operator:wikidata": "Q11780297", "public_transport": "stop_position", "railway": "tram_stop", "ref": "101-1t", "tram": "yes"}}, {"type": "node", "id": 2163355810, "lat": 50.0748991, "lon": 20.0474952, "tags": {"name": "Struga 02", "public_transport": "stop_position", "railway": "tram_stop", "tram": "yes", "url": "http://rozklady.mpk.krakow.pl/aktualne/p/p0106.htm"}}, {"type": "node", "id": 2163355813, "lat": 50.083516, "lon": 20.0655469, "tags": {"name": "Zajezdnia Nowa Huta 01", "network": "Komunikacja Miejska w Krakowie", "network:wikidata": "Q1784404", "operator": "MPK Krak\u00f3w", "operator:wikidata": "Q11780297", "public_transport": "stop_position", "railway": "tram_stop", "ref": "193-1t", "tram": "yes"}}, {"type": "node", "id": 2163355814, "lat": 50.0835633, "lon": 20.0655949, "tags": {"name": "Zajezdnia Nowa Huta 02", "network": "Komunikacja Miejska w Krakowie", "network:wikidata": "Q1784404", "operator": "MPK Krak\u00f3w", "operator:wikidata": "Q11780297", "public_transport": "stop_position", "railway": "tram_stop", "ref": "193-2t", "tram": "yes"}}, {"type": "node", "id": 2194801607, "lat": 50.0677378, "lon": 20.0649285, "tags": {"name": "Bardosa 01", "network": "Komunikacja Miejska w Krakowie", "network:wikidata": "Q1784404", "operator": "MPK Krak\u00f3w", "operator:wikidata": "Q11780297", "public_transport": "stop_position", "railway": "tram_stop", "ref": "211-1t", "tram": "yes", "url": "http://rozklady.mpk.krakow.pl/aktualne/p/p0211.htm"}}, {"type": "node", "id": 2194801612, "lat": 50.064857, "lon": 20.0753646, "tags": {"name": "Brama nr 4 02", "network": "Komunikacja Miejska w Krakowie", "network:wikidata": "Q1784404", "operator": "MPK Krak\u00f3w", "operator:wikidata": "Q11780297", "public_transport": "stop_position", "railway": "tram_stop", "ref": "213-2t", "tram": "yes"}}, {"type": "node", "id": 2194801616, "lat": 50.0649539, "lon": 20.0747735, "tags": {"name": "Brama nr 4 01", "network": "Komunikacja Miejska w Krakowie", "network:wikidata": "Q1784404", "operator": "MPK Krak\u00f3w", "operator:wikidata": "Q11780297", "public_transport": "stop_position", "railway": "tram_stop", "ref": "213-1t", "tram": "yes"}}, {"type": "node", "id": 2194801619, "lat": 50.0667005, "lon": 20.0707822, "tags": {"name": "Fort Mogi\u0142a 01", "network": "Komunikacja Miejska w Krakowie", "network:wikidata": "Q1784404", "operator": "MPK Krak\u00f3w", "operator:wikidata": "Q11780297", "public_transport": "stop_position", "railway": "tram_stop", "ref": "889-1t", "tram": "yes"}}, {"type": "node", "id": 2194801621, "lat": 50.0719064, "lon": 20.1044867, "tags": {"name": "Koksochemia 02", "network": "Komunikacja Miejska w Krakowie", "network:wikidata": "Q1784404", "operator": "MPK Krak\u00f3w", "operator:wikidata": "Q11780297", "public_transport": "stop_position", "railway": "tram_stop", "ref": "217-2t", "tram": "yes"}}, {"type": "node", "id": 2255627362, "lat": 50.0406212, "lon": 19.9783247, "tags": {"name": "Gromadzka 01", "network": "Komunikacja Miejska w Krakowie", "network:wikidata": "Q1784404", "operator": "MPK Krak\u00f3w", "operator:wikidata": "Q11780297", "public_transport": "stop_position", "railway": "tram_stop", "ref": "671-1t", "tram": "yes"}}, {"type": "node", "id": 2386355259, "lat": 50.0698355, "lon": 20.0453049, "tags": {"name": "Os. Na Skarpie 01", "network": "Komunikacja Miejska w Krakowie", "network:wikidata": "Q1784404", "operator": "MPK Krak\u00f3w", "operator:wikidata": "Q11780297", "public_transport": "stop_position", "railway": "tram_stop", "ref": "188-1t", "tram": "yes", "url": "http://rozklady.mpk.krakow.pl/aktualne/p/p0188.htm"}}, {"type": "node", "id": 2386355260, "lat": 50.0790591, "lon": 20.028057, "tags": {"name": "Rondo Kocmyrzowskie im. Ks. Gorzelanego 04", "network": "Komunikacja Miejska w Krakowie", "network:wikidata": "Q1784404", "operator": "MPK Krak\u00f3w", "operator:wikidata": "Q11780297", "public_transport": "stop_position", "railway": "tram_stop", "ref": "118-4t", "tram": "yes"}}, {"type": "node", "id": 2386355261, "lat": 50.0800692, "lon": 20.0284153, "tags": {"name": "Rondo Kocmyrzowskie im. Ks. Gorzelanego 03", "network": "Komunikacja Miejska w Krakowie", "network:wikidata": "Q1784404", "operator": "MPK Krak\u00f3w", "operator:wikidata": "Q11780297", "public_transport": "stop_position", "railway": "tram_stop", "ref": "118-3t", "tram": "yes"}}, {"type": "node", "id": 2418596862, "lat": 50.0520683, "lon": 19.9412017, "tags": {"name": "Stradom 02", "network": "Komunikacja Miejska w Krakowie", "network:wikidata": "Q1784404", "operator": "MPK Krak\u00f3w", "operator:wikidata": "Q11780297", "public_transport": "stop_position", "railway": "tram_stop", "ref": "819-2t", "tram": "yes", "wheelchair": "no"}}, {"type": "node", "id": 2418596863, "lat": 50.0467789, "lon": 19.9255938, "tags": {"bus": "yes", "name": "Szwedzka 02", "network": "Komunikacja Miejska w Krakowie", "network:wikidata": "Q1784404", "operator": "MPK Krak\u00f3w", "operator:wikidata": "Q11780297", "public_transport": "stop_position", "railway": "tram_stop", "ref": "522-2t", "tram": "yes"}}, {"type": "node", "id": 2418610054, "lat": 50.0522511, "lon": 19.942057, "tags": {"name": "Stradom 03", "network": "Komunikacja Miejska w Krakowie", "network:wikidata": "Q1784404", "operator": "MPK Krak\u00f3w", "operator:wikidata": "Q11780297", "public_transport": "stop_position", "railway": "tram_stop", "ref": "819-3t", "tram": "yes", "wheelchair": "yes"}}, {"type": "node", "id": 2418723932, "lat": 50.0301448, "lon": 19.9131498, "tags": {"name": "Norymberska 02", "network": "Komunikacja Miejska w Krakowie", "network:wikidata": "Q1784404", "operator": "MPK Krak\u00f3w", "operator:wikidata": "Q11780297", "public_transport": "stop_position", "railway": "tram_stop", "ref": "527-2t", "tram": "yes", "wheelchair": "yes"}}, {"type": "node", "id": 2418766215, "lat": 50.0543131, "lon": 19.939381, "tags": {"name": "Wawel 02", "network": "Komunikacja Miejska w Krakowie", "network:wikidata": "Q1784404", "operator": "MPK Krak\u00f3w", "operator:wikidata": "Q11780297", "public_transport": "stop_position", "railway": "tram_stop", "ref": "818-2t", "tram": "yes", "wheelchair": "no"}}, {"type": "node", "id": 2419039772, "lat": 50.0568069, "lon": 19.9451482, "tags": {"name": "Starowi\u015blna 02", "network": "Komunikacja Miejska w Krakowie", "network:wikidata": "Q1784404", "operator": "MPK Krak\u00f3w", "operator:wikidata": "Q11780297", "public_transport": "stop_position", "railway": "tram_stop", "ref": "807-2t", "tram": "yes", "wheelchair": "yes"}}, {"type": "node", "id": 2419064240, "lat": 50.0466859, "lon": 19.9550071, "tags": {"name": "Plac Bohater\u00f3w Getta 01", "public_transport": "stop_position", "railway": "tram_stop", "tram": "yes", "url": "http://rozklady.mpk.krakow.pl/aktualne/p/p0640.htm"}}, {"type": "node", "id": 2419064241, "lat": 50.0466922, "lon": 19.9550582, "tags": {"name": "Plac Bohater\u00f3w Getta 02", "public_transport": "stop_position", "railway": "tram_stop", "tram": "yes", "url": "http://rozklady.mpk.krakow.pl/aktualne/p/p0640.htm"}}, {"type": "node", "id": 2419106061, "lat": 50.0532057, "lon": 19.9488976, "tags": {"name": "Miodowa 02", "network": "Komunikacja Miejska w Krakowie", "network:wikidata": "Q1784404", "operator": "MPK Krak\u00f3w", "operator:wikidata": "Q11780297", "public_transport": "stop_position", "railway": "tram_stop", "ref": "815-2t", "tram": "yes", "wheelchair": "no"}}, {"type": "node", "id": 2419106062, "lat": 50.053934, "lon": 19.9480787, "tags": {"name": "Miodowa 01", "network": "Komunikacja Miejska w Krakowie", "network:wikidata": "Q1784404", "operator": "MPK Krak\u00f3w", "operator:wikidata": "Q11780297", "public_transport": "stop_position", "railway": "tram_stop", "ref": "815-1t", "tram": "yes", "wheelchair": "no"}}, {"type": "node", "id": 2419106073, "lat": 50.0511328, "lon": 19.951063, "tags": {"name": "\u015bw. Wawrzy\u0144ca 01", "network": "Komunikacja Miejska w Krakowie", "network:wikidata": "Q1784404", "operator": "MPK Krak\u00f3w", "operator:wikidata": "Q11780297", "public_transport": "stop_position", "railway": "tram_stop", "ref": "816-1t", "tram": "yes", "wheelchair": "no"}}, {"type": "node", "id": 2419367401, "lat": 50.0591774, "lon": 19.9330989, "tags": {"name": "Filharmonia 03", "network": "Komunikacja Miejska w Krakowie", "network:wikidata": "Q1784404", "operator": "MPK Krak\u00f3w", "operator:wikidata": "Q11780297", "public_transport": "stop_position", "railway": "tram_stop", "ref": "822-3t", "tram": "yes", "wheelchair": "yes"}}, {"type": "node", "id": 2419720285, "lat": 50.0550028, "lon": 19.9270698, "tags": {"name": "Jubilat 02", "network": "Komunikacja Miejska w Krakowie", "network:wikidata": "Q1784404", "operator": "MPK Krak\u00f3w", "operator:wikidata": "Q11780297", "public_transport": "stop_position", "railway": "tram_stop", "ref": "823-02", "tram": "yes"}}, {"type": "node", "id": 2419720286, "lat": 50.0555551, "lon": 19.9282103, "tags": {"name": "Jubilat 01", "network": "Komunikacja Miejska w Krakowie", "network:wikidata": "Q1784404", "operator": "MPK Krak\u00f3w", "operator:wikidata": "Q11780297", "public_transport": "stop_position", "railway": "tram_stop", "ref": "823-01", "tram": "yes"}}, {"type": "node", "id": 2419720287, "lat": 50.0535694, "lon": 19.9223635, "tags": {"name": "Komorowskiego 01", "network": "Komunikacja Miejska w Krakowie", "network:wikidata": "Q1784404", "operator": "MPK Krak\u00f3w", "operator:wikidata": "Q11780297", "public_transport": "stop_position", "railway": "tram_stop", "ref": "300-1t", "tram": "yes", "wheelchair": "no"}}, {"type": "node", "id": 2419732952, "lat": 50.0528046, "lon": 19.9136821, "tags": {"name": "Salwator 01", "network": "Komunikacja Miejska w Krakowie", "network:wikidata": "Q1784404", "operator": "MPK Krak\u00f3w", "operator:wikidata": "Q11780297", "public_transport": "stop_position", "railway": "tram_stop", "ref": "301-1t", "tram": "yes"}}, {"type": "node", "id": 2419732954, "lat": 50.052734, "lon": 19.914996, "tags": {"name": "Salwator 02", "network": "Komunikacja Miejska w Krakowie", "network:wikidata": "Q1784404", "operator": "MPK Krak\u00f3w", "operator:wikidata": "Q11780297", "public_transport": "stop_position", "railway": "tram_stop", "ref": "301-2t", "tram": "yes", "wheelchair": "no"}}, {"type": "node", "id": 2419768560, "lat": 50.0586597, "lon": 19.9329612, "tags": {"name": "Filharmonia 02", "network": "Komunikacja Miejska w Krakowie", "network:wikidata": "Q1784404", "operator": "MPK Krak\u00f3w", "operator:wikidata": "Q11780297", "public_transport": "stop_position", "railway": "tram_stop", "ref": "822-2t", "tram": "yes", "wheelchair": "yes"}}, {"type": "node", "id": 2419768561, "lat": 50.0590323, "lon": 19.9338703, "tags": {"name": "Filharmonia 01", "network": "Komunikacja Miejska w Krakowie", "network:wikidata": "Q1784404", "operator": "MPK Krak\u00f3w", "operator:wikidata": "Q11780297", "public_transport": "stop_position", "railway": "tram_stop", "tram": "yes", "wheelchair": "yes"}}, {"type": "node", "id": 2419768562, "lat": 50.0479808, "lon": 19.9434554, "tags": {"name": "Plac Wolnica 01", "network": "Komunikacja Miejska w Krakowie", "network:wikidata": "Q1784404", "operator": "MPK Krak\u00f3w", "operator:wikidata": "Q11780297", "public_transport": "stop_position", "railway": "tram_stop", "ref": "820-1t", "tram": "yes", "wheelchair": "yes"}}, {"type": "node", "id": 2419768563, "lat": 50.0481446, "lon": 19.9434346, "tags": {"name": "Plac Wolnica 02", "network": "Komunikacja Miejska w Krakowie", "network:wikidata": "Q1784404", "operator": "MPK Krak\u00f3w", "operator:wikidata": "Q11780297", "public_transport": "stop_position", "railway": "tram_stop", "ref": "820-2t", "tram": "yes", "wheelchair": "yes"}}, {"type": "node", "id": 2419768564, "lat": 50.0591186, "lon": 19.9374895, "tags": {"name": "Plac Wszystkich \u015awi\u0119tych 02", "network": "Komunikacja Miejska w Krakowie", "network:wikidata": "Q1784404", "operator": "MPK Krak\u00f3w", "operator:wikidata": "Q11780297", "public_transport": "stop_position", "railway": "tram_stop", "ref": "821-2t", "tram": "yes", "wheelchair": "limited"}}, {"type": "node", "id": 2419768565, "lat": 50.0591266, "lon": 19.9383699, "tags": {"name": "Plac Wszystkich \u015awi\u0119tych 01", "network": "Komunikacja Miejska w Krakowie", "network:wikidata": "Q1784404", "operator": "MPK Krak\u00f3w", "operator:wikidata": "Q11780297", "public_transport": "stop_position", "railway": "tram_stop", "ref": "821-1t", "tram": "yes", "wheelchair": "yes"}}, {"type": "node", "id": 2419768566, "lat": 50.0593419, "lon": 19.9418181, "tags": {"name": "Poczta G\u0142\u00f3wna 03", "network": "Komunikacja Miejska w Krakowie", "network:wikidata": "Q1784404", "operator": "MPK Krak\u00f3w", "operator:wikidata": "Q11780297", "public_transport": "stop_position", "railway": "tram_stop", "ref": "806-3t", "tram": "yes", "wheelchair": "no"}}, {"type": "node", "id": 2419768567, "lat": 50.050864, "lon": 19.9423858, "tags": {"name": "Stradom 04", "network": "Komunikacja Miejska w Krakowie", "network:wikidata": "Q1784404", "operator": "MPK Krak\u00f3w", "operator:wikidata": "Q11780297", "public_transport": "stop_position", "railway": "tram_stop", "ref": "819-4t", "tram": "yes", "wheelchair": "yes"}}, {"type": "node", "id": 2419768568, "lat": 50.0514795, "lon": 19.941335, "tags": {"name": "Stradom 01", "network": "Komunikacja Miejska w Krakowie", "network:wikidata": "Q1784404", "operator": "MPK Krak\u00f3w", "operator:wikidata": "Q11780297", "public_transport": "stop_position", "railway": "tram_stop", "ref": "819-1t", "tram": "yes", "wheelchair": "yes"}}, {"type": "node", "id": 2419768586, "lat": 50.0584541, "lon": 19.9408874, "tags": {"name": "\u015bw. Gertrudy 01", "network": "Komunikacja Miejska w Krakowie", "network:wikidata": "Q1784404", "operator": "MPK Krak\u00f3w", "operator:wikidata": "Q11780297", "public_transport": "stop_position", "railway": "tram_stop", "ref": "817-1t", "tram": "yes", "wheelchair": "no"}}, {"type": "node", "id": 2419775591, "lat": 50.0424354, "lon": 19.9607129, "tags": {"name": "Podg\u00f3rze SKA 01", "network": "Komunikacja Miejska w Krakowie", "network:wikidata": "Q1784404", "operator": "MPK Krak\u00f3w", "operator:wikidata": "Q11780297", "public_transport": "stop_position", "railway": "tram_stop", "ref": "642-1t", "tram": "yes", "url": "http://rozklady.mpk.krakow.pl/aktualne/p/p0642.htm"}}, {"type": "node", "id": 2419790519, "lat": 50.0358614, "lon": 19.9402834, "tags": {"name": "Rondo Matecznego 02", "network": "Komunikacja Miejska w Krakowie", "network:wikidata": "Q1784404", "operator": "MPK Krak\u00f3w", "operator:wikidata": "Q11780297", "public_transport": "stop_position", "railway": "tram_stop", "ref": "558-2t", "tram": "yes", "url": "http://rozklady.mpk.krakow.pl/aktualne/p/p0558.htm"}}, {"type": "node", "id": 2419790520, "lat": 50.0369442, "lon": 19.9407839, "tags": {"name": "Rondo Matecznego 01", "network": "Komunikacja Miejska w Krakowie", "network:wikidata": "Q1784404", "operator": "MPK Krak\u00f3w", "operator:wikidata": "Q11780297", "public_transport": "stop_position", "railway": "tram_stop", "ref": "558-1t", "tram": "yes", "url": "http://rozklady.mpk.krakow.pl/aktualne/p/p0558.htm"}}, {"type": "node", "id": 2419790521, "lat": 50.0414281, "lon": 19.9430846, "tags": {"name": "Smolki 01", "network": "Komunikacja Miejska w Krakowie", "network:wikidata": "Q1784404", "operator": "MPK Krak\u00f3w", "operator:wikidata": "Q11780297", "public_transport": "stop_position", "railway": "tram_stop", "ref": "557-1t", "tram": "yes", "url": "http://rozklady.mpk.krakow.pl/aktualne/p/p0557.htm"}}, {"type": "node", "id": 2419790522, "lat": 50.041641, "lon": 19.9432459, "tags": {"name": "Smolki 02", "network": "Komunikacja Miejska w Krakowie", "network:wikidata": "Q1784404", "operator": "MPK Krak\u00f3w", "operator:wikidata": "Q11780297", "public_transport": "stop_position", "railway": "tram_stop", "ref": "557-2t", "tram": "yes", "url": "http://rozklady.mpk.krakow.pl/aktualne/p/p0557.htm"}}, {"type": "node", "id": 2419790544, "lat": 50.0303365, "lon": 19.936893, "tags": {"name": "\u0141agiewniki 01", "network": "Komunikacja Miejska w Krakowie", "network:wikidata": "Q1784404", "operator": "MPK Krak\u00f3w", "operator:wikidata": "Q11780297", "public_transport": "stop_position", "railway": "tram_stop", "ref": "553-1t", "tram": "yes", "url": "http://rozklady.mpk.krakow.pl/aktualne/p/p0553.htm"}}, {"type": "node", "id": 2419821165, "lat": 50.0595283, "lon": 19.9256516, "tags": {"name": "Muzeum Narodowe 01", "network": "Komunikacja Miejska w Krakowie", "network:wikidata": "Q1784404", "operator": "MPK Krak\u00f3w", "operator:wikidata": "Q11780297", "public_transport": "stop_position", "railway": "tram_stop", "ref": "825-1t", "tram": "yes", "wheelchair": "yes"}}, {"type": "node", "id": 2419821166, "lat": 50.0602515, "lon": 19.930607, "tags": {"name": "UJ / AST 01", "network": "Komunikacja Miejska w Krakowie", "network:wikidata": "Q1784404", "operator": "MPK Krak\u00f3w", "operator:wikidata": "Q11780297", "public_transport": "stop_position", "railway": "tram_stop", "ref": "824-1t", "tram": "yes", "wheelchair": "yes"}}, {"type": "node", "id": 2419831874, "lat": 50.0629376, "lon": 19.9033736, "tags": {"name": "Cichy K\u0105cik 01", "network": "Komunikacja Miejska w Krakowie", "network:wikidata": "Q1784404", "operator": "MPK Krak\u00f3w", "operator:wikidata": "Q11780297", "public_transport": "stop_position", "railway": "tram_stop", "ref": "347-1t", "tram": "yes"}}, {"type": "node", "id": 2419831875, "lat": 50.0613357, "lon": 19.91121, "tags": {"name": "Reymana 01", "network": "Komunikacja Miejska w Krakowie", "network:wikidata": "Q1784404", "operator": "MPK Krak\u00f3w", "operator:wikidata": "Q11780297", "public_transport": "stop_position", "railway": "tram_stop", "ref": "346-1t", "tram": "yes"}}, {"type": "node", "id": 2419894822, "lat": 50.0630575, "lon": 19.9325964, "tags": {"name": "Teatr Bagatela 01", "network": "Komunikacja Miejska w Krakowie", "network:wikidata": "Q1784404", "operator": "MPK Krak\u00f3w", "operator:wikidata": "Q11780297", "public_transport": "stop_position", "railway": "tram_stop", "ref": "827-1t", "tram": "yes", "wheelchair": "yes"}}, {"type": "node", "id": 2419959763, "lat": 50.0666264, "lon": 19.9293711, "tags": {"name": "Stefana Batorego 01", "network": "Komunikacja Miejska w Krakowie", "network:wikidata": "Q1784404", "operator": "MPK Krak\u00f3w", "operator:wikidata": "Q11780297", "public_transport": "stop_position", "railway": "tram_stop", "ref": "828-1t", "tram": "yes", "wheelchair": "yes"}}, {"type": "node", "id": 2419959765, "lat": 50.0778605, "lon": 19.9005209, "tags": {"name": "Bronowice 03", "network": "Komunikacja Miejska w Krakowie", "network:wikidata": "Q1784404", "operator": "MPK Krak\u00f3w", "operator:wikidata": "Q11780297", "public_transport": "stop_position", "railway": "tram_stop", "ref": "357-3t", "tram": "yes"}}, {"type": "node", "id": 2419959766, "lat": 50.0688451, "lon": 19.9268115, "tags": {"name": "Plac Inwalid\u00f3w 01", "network": "Komunikacja Miejska w Krakowie", "network:wikidata": "Q1784404", "operator": "MPK Krak\u00f3w", "operator:wikidata": "Q11780297", "public_transport": "stop_position", "railway": "tram_stop", "ref": "354-1t", "tram": "yes", "wheelchair": "yes"}}, {"type": "node", "id": 2419959767, "lat": 50.0695929, "lon": 19.9258957, "tags": {"name": "Plac Inwalid\u00f3w 02", "network": "Komunikacja Miejska w Krakowie", "network:wikidata": "Q1784404", "operator": "MPK Krak\u00f3w", "operator:wikidata": "Q11780297", "public_transport": "stop_position", "railway": "tram_stop", "ref": "354-2t", "tram": "yes", "wheelchair": "yes"}}, {"type": "node", "id": 2419959769, "lat": 50.0637373, "lon": 19.9326155, "tags": {"name": "Teatr Bagatela 03", "network": "Komunikacja Miejska w Krakowie", "network:wikidata": "Q1784404", "operator": "MPK Krak\u00f3w", "operator:wikidata": "Q11780297", "public_transport": "stop_position", "railway": "tram_stop", "ref": "827-3t", "tram": "yes", "wheelchair": "no"}}, {"type": "node", "id": 2419959774, "lat": 50.078897, "lon": 19.8977108, "tags": {"name": "Wesele 01", "network": "Komunikacja Miejska w Krakowie", "network:wikidata": "Q1784404", "operator": "MPK Krak\u00f3w", "operator:wikidata": "Q11780297", "public_transport": "stop_position", "railway": "tram_stop", "ref": "358-1t", "tram": "yes", "wheelchair": "yes"}}, {"type": "node", "id": 2419959849, "lat": 50.0771602, "lon": 19.9013737, "tags": {"name": "Bronowice", "network": "Komunikacja Miejska w Krakowie", "network:wikidata": "Q1784404", "operator": "MPK Krak\u00f3w", "operator:wikidata": "Q11780297", "public_transport": "stop_position", "railway": "tram_stop", "tram": "yes"}}, {"type": "node", "id": 2419959874, "lat": 50.079226, "lon": 19.8967434, "tags": {"name": "Wesele 02", "network": "Komunikacja Miejska w Krakowie", "network:wikidata": "Q1784404", "operator": "MPK Krak\u00f3w", "operator:wikidata": "Q11780297", "public_transport": "stop_position", "railway": "tram_stop", "ref": "358-2t", "shelter": "yes", "tram": "yes", "wheelchair": "yes"}}, {"type": "node", "id": 2419986537, "lat": 50.0813371, "lon": 19.889683, "tags": {"name": "Bronowice SKA 01", "network": "Komunikacja Miejska w Krakowie", "network:wikidata": "Q1784404", "operator": "MPK Krak\u00f3w", "operator:wikidata": "Q11780297", "public_transport": "stop_position", "railway": "tram_stop", "ref": "359-1t", "tram": "yes"}}, {"type": "node", "id": 2419986538, "lat": 50.0728622, "lon": 19.9160555, "tags": {"name": "Biprostal 01", "network": "Komunikacja Miejska w Krakowie", "network:wikidata": "Q1784404", "operator": "MPK Krak\u00f3w", "operator:wikidata": "Q11780297", "public_transport": "stop_position", "railway": "tram_stop", "ref": "355-1t", "tram": "yes"}}, {"type": "node", "id": 2419986539, "lat": 50.0730964, "lon": 19.9150451, "tags": {"name": "Biprostal 02", "network": "Komunikacja Miejska w Krakowie", "network:wikidata": "Q1784404", "operator": "MPK Krak\u00f3w", "operator:wikidata": "Q11780297", "public_transport": "stop_position", "railway": "tram_stop", "ref": "355-2t", "tram": "yes"}}, {"type": "node", "id": 2419986540, "lat": 50.0818092, "lon": 19.8819243, "tags": {"name": "Bronowice Ma\u0142e 01", "network": "Komunikacja Miejska w Krakowie", "network:wikidata": "Q1784404", "operator": "MPK Krak\u00f3w", "operator:wikidata": "Q11780297", "public_transport": "stop_position", "railway": "tram_stop", "ref": "360-1t", "tram": "yes"}}, {"type": "node", "id": 2419986541, "lat": 50.0820443, "lon": 19.8831004, "tags": {"name": "Bronowice Ma\u0142e", "network": "Komunikacja Miejska w Krakowie", "network:wikidata": "Q1784404", "operator": "MPK Krak\u00f3w", "operator:wikidata": "Q11780297", "public_transport": "stop_position", "railway": "tram_stop", "tram": "yes"}}, {"type": "node", "id": 2419986542, "lat": 50.0758889, "lon": 19.9058459, "tags": {"name": "G\u0142owackiego 02", "network": "Komunikacja Miejska w Krakowie", "network:wikidata": "Q1784404", "operator": "MPK Krak\u00f3w", "operator:wikidata": "Q11780297", "public_transport": "stop_position", "railway": "tram_stop", "ref": "169-2t", "tram": "yes", "wheelchair": "yes"}}, {"type": "node", "id": 2419986543, "lat": 50.0741238, "lon": 19.9107678, "tags": {"name": "UKEN 01", "network": "Komunikacja Miejska w Krakowie", "network:wikidata": "Q1784404", "operator": "MPK Krak\u00f3w", "operator:wikidata": "Q11780297", "public_transport": "stop_position", "railway": "tram_stop", "ref": "356-1t", "tram": "yes"}}, {"type": "node", "id": 2419986544, "lat": 50.074263, "lon": 19.9099924, "tags": {"name": "UKEN 02", "network": "Komunikacja Miejska w Krakowie", "network:wikidata": "Q1784404", "operator": "MPK Krak\u00f3w", "operator:wikidata": "Q11780297", "public_transport": "stop_position", "railway": "tram_stop", "ref": "356-2t", "tram": "yes"}}, {"type": "node", "id": 2419986545, "lat": 50.0717719, "lon": 19.9200252, "tags": {"name": "Urz\u0119dnicza 01", "network": "Komunikacja Miejska w Krakowie", "network:wikidata": "Q1784404", "operator": "MPK Krak\u00f3w", "operator:wikidata": "Q11780297", "public_transport": "stop_position", "railway": "tram_stop", "ref": "354-1t", "tram": "yes"}}, {"type": "node", "id": 2419986546, "lat": 50.0719628, "lon": 19.9192495, "tags": {"name": "Urz\u0119dnicza 02", "network": "Komunikacja Miejska w Krakowie", "network:wikidata": "Q1784404", "operator": "MPK Krak\u00f3w", "operator:wikidata": "Q11780297", "public_transport": "stop_position", "railway": "tram_stop", "ref": "354-2t", "tram": "yes"}}, {"type": "node", "id": 2420069703, "lat": 50.0662339, "lon": 19.9386241, "tags": {"name": "Stary Kleparz 02", "network": "Komunikacja Miejska w Krakowie", "network:wikidata": "Q1784404", "operator": "MPK Krak\u00f3w", "operator:wikidata": "Q11780297", "public_transport": "stop_position", "railway": "tram_stop", "ref": "833-2t", "tram": "yes", "wheelchair": "yes"}}, {"type": "node", "id": 2420153432, "lat": 50.0662923, "lon": 19.9396874, "tags": {"name": "Stary Kleparz 01", "network": "Komunikacja Miejska w Krakowie", "network:wikidata": "Q1784404", "operator": "MPK Krak\u00f3w", "operator:wikidata": "Q11780297", "public_transport": "stop_position", "railway": "tram_stop", "ref": "833-1t", "tram": "yes", "wheelchair": "no"}}, {"type": "node", "id": 2420153433, "lat": 50.0666541, "lon": 19.9389538, "tags": {"name": "Stary Kleparz 03", "network": "Komunikacja Miejska w Krakowie", "network:wikidata": "Q1784404", "operator": "MPK Krak\u00f3w", "operator:wikidata": "Q11780297", "public_transport": "stop_position", "railway": "tram_stop", "ref": "833-3t", "tram": "yes", "wheelchair": "limited"}}, {"type": "node", "id": 2420153434, "lat": 50.0676768, "lon": 19.9453415, "tags": {"name": "Dworzec G\u0142\u00f3wny Zach\u00f3d 01", "network": "Komunikacja Miejska w Krakowie", "network:wikidata": "Q1784404", "operator": "MPK Krak\u00f3w", "operator:wikidata": "Q11780297", "public_transport": "stop_position", "railway": "tram_stop", "ref": "760-1t", "tram": "yes"}}, {"type": "node", "id": 2420153435, "lat": 50.0707439, "lon": 19.9449088, "tags": {"layer": "-2", "name": "Politechnika 03", "network": "Komunikacja Miejska w Krakowie", "network:wikidata": "Q1784404", "operator": "MPK Krak\u00f3w", "operator:wikidata": "Q11780297", "public_transport": "stop_position", "railway": "tram_stop", "ref": "839-3t", "shelter": "yes", "tram": "yes", "tunnel": "yes"}}, {"type": "node", "id": 2420200260, "lat": 50.0646175, "lon": 19.9456263, "tags": {"name": "Teatr S\u0142owackiego 01", "network": "Komunikacja Miejska w Krakowie", "network:wikidata": "Q1784404", "operator": "MPK Krak\u00f3w", "operator:wikidata": "Q11780297", "public_transport": "stop_position", "railway": "tram_stop", "ref": "801-1t", "tram": "yes", "wheelchair": "yes"}}, {"type": "node", "id": 2420200261, "lat": 50.0650488, "lon": 19.9511035, "tags": {"name": "Lubicz 02", "network": "Komunikacja Miejska w Krakowie", "network:wikidata": "Q1784404", "operator": "MPK Krak\u00f3w", "operator:wikidata": "Q11780297", "public_transport": "stop_position", "railway": "tram_stop", "ref": "851-2t", "tram": "yes"}}, {"type": "node", "id": 2420200262, "lat": 50.0651825, "lon": 19.952247, "tags": {"name": "Lubicz 01", "network": "Komunikacja Miejska w Krakowie", "network:wikidata": "Q1784404", "operator": "MPK Krak\u00f3w", "operator:wikidata": "Q11780297", "public_transport": "stop_position", "railway": "tram_stop", "ref": "851-1t", "tram": "yes"}}, {"type": "node", "id": 2420216111, "lat": 50.0641923, "lon": 19.9449845, "tags": {"name": "Teatr S\u0142owackiego 03", "network": "Komunikacja Miejska w Krakowie", "network:wikidata": "Q1784404", "operator": "MPK Krak\u00f3w", "operator:wikidata": "Q11780297", "public_transport": "stop_position", "railway": "tram_stop", "ref": "801-3t", "tram": "yes", "wheelchair": "yes"}}, {"type": "node", "id": 2420233974, "lat": 50.0655639, "lon": 19.951684, "tags": {"name": "Lubicz 03", "network": "Komunikacja Miejska w Krakowie", "network:wikidata": "Q1784404", "operator": "MPK Krak\u00f3w", "operator:wikidata": "Q11780297", "public_transport": "stop_position", "railway": "tram_stop", "ref": "851-3t", "tram": "yes"}}, {"type": "node", "id": 2420233975, "lat": 50.0675583, "lon": 19.9522054, "tags": {"name": "Uniwersytet Ekonomiczny 01", "network": "Komunikacja Miejska w Krakowie", "network:wikidata": "Q1784404", "operator": "MPK Krak\u00f3w", "operator:wikidata": "Q11780297", "public_transport": "stop_position", "railway": "tram_stop", "ref": "852-1t", "tram": "yes"}}, {"type": "node", "id": 2420233976, "lat": 50.0683695, "lon": 19.9526646, "tags": {"name": "Uniwersytet Ekonomiczny 02", "network": "Komunikacja Miejska w Krakowie", "network:wikidata": "Q1784404", "operator": "MPK Krak\u00f3w", "operator:wikidata": "Q11780297", "public_transport": "stop_position", "railway": "tram_stop", "ref": "852-2t", "tram": "yes"}}, {"type": "node", "id": 2420246141, "lat": 50.0575518, "lon": 19.9577358, "tags": {"bus": "yes", "name": "Rondo Grzeg\u00f3rzeckie 02", "network": "Komunikacja Miejska w Krakowie", "network:wikidata": "Q1784404", "operator": "MPK Krak\u00f3w", "operator:wikidata": "Q11780297", "public_transport": "stop_position", "railway": "tram_stop", "ref": "809-2t", "tram": "yes"}}, {"type": "node", "id": 2420263459, "lat": 50.0573064, "lon": 19.9461278, "tags": {"name": "Starowi\u015blna 03", "network": "Komunikacja Miejska w Krakowie", "network:wikidata": "Q1784404", "operator": "MPK Krak\u00f3w", "operator:wikidata": "Q11780297", "public_transport": "stop_position", "railway": "tram_stop", "ref": "807-3t", "tram": "yes"}}, {"type": "node", "id": 2420286329, "lat": 50.0759118, "lon": 19.9404365, "tags": {"name": "Dworzec Towarowy 02", "network": "Komunikacja Miejska w Krakowie", "network:wikidata": "Q1784404", "operator": "MPK Krak\u00f3w", "operator:wikidata": "Q11780297", "public_transport": "stop_position", "railway": "tram_stop", "ref": "381-2t", "tram": "yes"}}, {"type": "node", "id": 2420286330, "lat": 50.0760026, "lon": 19.9402228, "tags": {"name": "Dworzec Towarowy 01", "network": "Komunikacja Miejska w Krakowie", "network:wikidata": "Q1784404", "operator": "MPK Krak\u00f3w", "operator:wikidata": "Q11780297", "public_transport": "stop_position", "railway": "tram_stop", "ref": "381-1t", "tram": "yes", "wheelchair": "limited"}}, {"type": "node", "id": 2420286331, "lat": 50.0734789, "lon": 19.9362906, "tags": {"name": "Nowy Kleparz 02", "network": "Komunikacja Miejska w Krakowie", "network:wikidata": "Q1784404", "operator": "MPK Krak\u00f3w", "operator:wikidata": "Q11780297", "public_transport": "stop_position", "railway": "tram_stop", "ref": "835-2t", "tram": "yes"}}, {"type": "node", "id": 2420979790, "lat": 50.0240483, "lon": 19.9014789, "tags": {"name": "Kampus UJ 01", "network": "Komunikacja Miejska w Krakowie", "network:wikidata": "Q1784404", "operator": "MPK Krak\u00f3w", "operator:wikidata": "Q11780297", "public_transport": "stop_position", "railway": "tram_stop", "ref": "291-1t", "tram": "yes"}}, {"type": "node", "id": 2420979795, "lat": 50.0247654, "lon": 19.9020484, "tags": {"name": "Kampus UJ 02", "network": "Komunikacja Miejska w Krakowie", "network:wikidata": "Q1784404", "operator": "MPK Krak\u00f3w", "operator:wikidata": "Q11780297", "public_transport": "stop_position", "railway": "tram_stop", "ref": "291-2t", "tram": "yes"}}, {"type": "node", "id": 2421242332, "lat": 50.0269345, "lon": 19.9051892, "tags": {"name": "Ruczaj 01", "network": "Komunikacja Miejska w Krakowie", "network:wikidata": "Q1784404", "operator": "MPK Krak\u00f3w", "operator:wikidata": "Q11780297", "public_transport": "stop_position", "railway": "tram_stop", "ref": "706-1t", "tram": "yes"}}, {"type": "node", "id": 2421242341, "lat": 50.0272566, "lon": 19.9060382, "tags": {"name": "Ruczaj 02", "network": "Komunikacja Miejska w Krakowie", "network:wikidata": "Q1784404", "operator": "MPK Krak\u00f3w", "operator:wikidata": "Q11780297", "public_transport": "stop_position", "railway": "tram_stop", "ref": "706-2t", "tram": "yes"}}, {"type": "node", "id": 2421261471, "lat": 50.0298144, "lon": 19.9122283, "tags": {"name": "Norymberska 01", "network": "Komunikacja Miejska w Krakowie", "network:wikidata": "Q1784404", "operator": "MPK Krak\u00f3w", "operator:wikidata": "Q11780297", "public_transport": "stop_position", "railway": "tram_stop", "ref": "527-1t", "tram": "yes", "wheelchair": "yes"}}, {"type": "node", "id": 2421317346, "lat": 50.030727, "lon": 19.924991, "tags": {"name": "Lipi\u0144skiego 02", "network": "Komunikacja Miejska w Krakowie", "network:wikidata": "Q1784404", "operator": "MPK Krak\u00f3w", "operator:wikidata": "Q11780297", "public_transport": "stop_position", "railway": "tram_stop", "ref": "528-2t", "tram": "yes"}}, {"type": "node", "id": 2421317351, "lat": 50.0308033, "lon": 19.9247237, "tags": {"name": "Lipi\u0144skiego 01", "network": "Komunikacja Miejska w Krakowie", "network:wikidata": "Q1784404", "operator": "MPK Krak\u00f3w", "operator:wikidata": "Q11780297", "public_transport": "stop_position", "railway": "tram_stop", "ref": "528-1t", "tram": "yes", "url": "http://rozklady.mpk.krakow.pl/aktualne/p/p0528.htm"}}, {"type": "node", "id": 2421481610, "lat": 50.0305096, "lon": 19.9285009, "tags": {"name": "Borsucza 01", "network": "Komunikacja Miejska w Krakowie", "network:wikidata": "Q1784404", "operator": "MPK Krak\u00f3w", "operator:wikidata": "Q11780297", "public_transport": "stop_position", "railway": "tram_stop", "ref": "551-1t", "tram": "yes"}}, {"type": "node", "id": 2421481611, "lat": 50.0305488, "lon": 19.9290862, "tags": {"name": "Borsucza 02", "network": "Komunikacja Miejska w Krakowie", "network:wikidata": "Q1784404", "operator": "MPK Krak\u00f3w", "operator:wikidata": "Q11780297", "public_transport": "stop_position", "railway": "tram_stop", "ref": "551-2t", "tram": "yes"}}, {"type": "node", "id": 2421485635, "lat": 50.0304972, "lon": 19.9318972, "tags": {"name": "Bro\u017cka 01", "network": "Komunikacja Miejska w Krakowie", "network:wikidata": "Q1784404", "operator": "MPK Krak\u00f3w", "operator:wikidata": "Q11780297", "public_transport": "stop_position", "railway": "tram_stop", "ref": "552-1t", "tram": "yes"}}, {"type": "node", "id": 2421489794, "lat": 50.03059, "lon": 19.9370862, "tags": {"name": "\u0141agiewniki 02", "network": "Komunikacja Miejska w Krakowie", "network:wikidata": "Q1784404", "operator": "MPK Krak\u00f3w", "operator:wikidata": "Q11780297", "public_transport": "stop_position", "railway": "tram_stop", "ref": "553-2t", "tram": "yes", "url": "http://rozklady.mpk.krakow.pl/aktualne/p/p0553.htm"}}, {"type": "node", "id": 2421493335, "lat": 50.0294996, "lon": 19.9359338, "tags": {"name": "\u0141agiewniki 04", "network": "Komunikacja Miejska w Krakowie", "network:wikidata": "Q1784404", "operator": "MPK Krak\u00f3w", "operator:wikidata": "Q11780297", "public_transport": "stop_position", "railway": "tram_stop", "ref": "553-4t", "tram": "yes", "url": "http://rozklady.mpk.krakow.pl/aktualne/p/p0553.htm"}}, {"type": "node", "id": 2421547630, "lat": 50.0328992, "lon": 19.9383603, "tags": {"name": "Rzemie\u015blnicza 02", "network": "Komunikacja Miejska w Krakowie", "network:wikidata": "Q1784404", "operator": "MPK Krak\u00f3w", "operator:wikidata": "Q11780297", "public_transport": "stop_position", "railway": "tram_stop", "ref": "559-2t", "tram": "yes", "url": "http://rozklady.mpk.krakow.pl/aktualne/p/p0559.htm"}}, {"type": "node", "id": 2421888488, "lat": 50.0236224, "lon": 19.9794443, "tags": {"name": "Bie\u017canowska 04", "network": "Komunikacja Miejska w Krakowie", "network:wikidata": "Q1784404", "operator": "MPK Krak\u00f3w", "operator:wikidata": "Q11780297", "public_transport": "stop_position", "railway": "tram_stop", "ref": "646-4t", "tram": "yes", "website": "https://rozklady.mpk.krakow.pl/aktualne/p/p0646.htm"}}, {"type": "node", "id": 2422272345, "lat": 50.0449878, "lon": 19.9220062, "tags": {"name": "Kapelanka 01", "network": "Komunikacja Miejska w Krakowie", "network:wikidata": "Q1784404", "operator": "MPK Krak\u00f3w", "operator:wikidata": "Q11780297", "public_transport": "stop_position", "railway": "tram_stop", "ref": "523-1t", "tram": "yes"}}, {"type": "node", "id": 2422538507, "lat": 50.0145167, "lon": 19.9280284, "tags": {"name": "Solvay 02", "network": "Komunikacja Miejska w Krakowie", "network:wikidata": "Q1784404", "operator": "MPK Krak\u00f3w", "operator:wikidata": "Q11780297", "public_transport": "stop_position", "railway": "tram_stop", "ref": "743-2t", "tram": "yes", "url": "http://rozklady.mpk.krakow.pl/aktualne/p/p0743.htm"}}, {"type": "node", "id": 2422550518, "lat": 50.0157663, "lon": 19.9293849, "tags": {"name": "Ko\u015bciuszkowc\u00f3w 02", "network": "Komunikacja Miejska w Krakowie", "network:wikidata": "Q1784404", "operator": "MPK Krak\u00f3w", "operator:wikidata": "Q11780297", "public_transport": "stop_position", "railway": "tram_stop", "ref": "561-2t", "tram": "yes", "url": "http://rozklady.mpk.krakow.pl/aktualne/p/p0561.htm"}}, {"type": "node", "id": 2422656435, "lat": 50.0485794, "lon": 19.9309567, "tags": {"bench": "yes", "name": "Rondo Grunwaldzkie 01", "network": "Komunikacja Miejska w Krakowie", "network:wikidata": "Q1784404", "operator": "MPK Krak\u00f3w", "operator:wikidata": "Q11780297", "public_transport": "stop_position", "railway": "tram_stop", "ref": "501-1t", "shelter": "yes", "tram": "yes", "url": "http://rozklady.mpk.krakow.pl/aktualne/p/p0501.htm", "wheelchair": "yes"}}, {"type": "node", "id": 2422680047, "lat": 50.0506694, "lon": 19.9389434, "tags": {"name": "Orzeszkowej 01", "network": "Komunikacja Miejska w Krakowie", "network:wikidata": "Q1784404", "operator": "MPK Krak\u00f3w", "operator:wikidata": "Q11780297", "public_transport": "stop_position", "railway": "tram_stop", "ref": "872-1t", "tram": "yes"}}, {"type": "node", "id": 2422880689, "lat": 50.0584617, "lon": 19.9408506, "tags": {"name": "\u015bw. Gertrudy 02", "network": "Komunikacja Miejska w Krakowie", "network:wikidata": "Q1784404", "operator": "MPK Krak\u00f3w", "operator:wikidata": "Q11780297", "public_transport": "stop_position", "railway": "tram_stop", "ref": "817-2t", "tram": "yes", "wheelchair": "no"}}, {"type": "node", "id": 2423003234, "lat": 50.0572586, "lon": 19.9460278, "tags": {"name": "Starowi\u015blna 04", "network": "Komunikacja Miejska w Krakowie", "network:wikidata": "Q1784404", "operator": "MPK Krak\u00f3w", "operator:wikidata": "Q11780297", "public_transport": "stop_position", "railway": "tram_stop", "ref": "807-4t", "tram": "yes"}}, {"type": "node", "id": 2423003235, "lat": 50.0573091, "lon": 19.9445456, "tags": {"name": "Starowi\u015blna 01", "network": "Komunikacja Miejska w Krakowie", "network:wikidata": "Q1784404", "operator": "MPK Krak\u00f3w", "operator:wikidata": "Q11780297", "public_transport": "stop_position", "railway": "tram_stop", "ref": "807-1t", "tram": "yes"}}, {"type": "node", "id": 2423056677, "lat": 50.0514803, "lon": 19.9507376, "tags": {"name": "\u015bw. Wawrzy\u0144ca 02", "network": "Komunikacja Miejska w Krakowie", "network:wikidata": "Q1784404", "operator": "MPK Krak\u00f3w", "operator:wikidata": "Q11780297", "public_transport": "stop_position", "railway": "tram_stop", "ref": "816-2t", "tram": "yes", "wheelchair": "no"}}, {"type": "node", "id": 2423298435, "lat": 50.062986, "lon": 19.9033929, "tags": {"name": "Cichy K\u0105cik 01", "network": "Komunikacja Miejska w Krakowie", "network:wikidata": "Q1784404", "operator": "MPK Krak\u00f3w", "operator:wikidata": "Q11780297", "public_transport": "stop_position", "railway": "tram_stop", "ref": "347-1t", "tram": "yes"}}, {"type": "node", "id": 2423481568, "lat": 50.0650486, "lon": 19.9451458, "tags": {"name": "Teatr S\u0142owackiego 04", "network": "Komunikacja Miejska w Krakowie", "network:wikidata": "Q1784404", "operator": "MPK Krak\u00f3w", "operator:wikidata": "Q11780297", "public_transport": "stop_position", "railway": "tram_stop", "ref": "801-4t", "tram": "yes", "wheelchair": "yes"}}, {"type": "node", "id": 2423789750, "lat": 50.0696301, "lon": 19.9375141, "tags": {"name": "P\u0119dzich\u00f3w 02", "network": "Komunikacja Miejska w Krakowie", "network:wikidata": "Q1784404", "operator": "MPK Krak\u00f3w", "operator:wikidata": "Q11780297", "public_transport": "stop_position", "railway": "tram_stop", "ref": "834-2t", "tram": "yes", "wheelchair": "no"}},